[ {
  "type" : "node",
  "id" : 172348137,
  "lat" : 42.005709,
  "lon" : 21.4174425,
  "tags" : {
    "contact:phone" : "+38923117669",
    "fee" : "yes",
    "name" : "Природонаучен Музеј",
    "name:en" : "Macedonian Museum of Natural History",
    "name:pl" : "Muzeum Przyrodnicze",
    "name:tr" : "Ulusal Tarih Müzesi",
    "opening_hours" : "Tu-Su 09:00-16:00",
    "tourism" : "museum",
    "wikidata" : "Q20567394",
    "wikimedia_commons" : "Category:Macedonian Museum of Natural History",
    "wikipedia" : "mk:Природонаучен музеј на Македонија"
  },
  "nodes" : null,
  "members" : null
}, {
  "type" : "node",
  "id" : 367853384,
  "lat" : 41.9936737,
  "lon" : 21.433319,
  "tags" : {
    "artist" : "Кристина Пауновска",
    "cost" : "272.792 euro",
    "description" : "Историско значење Питу Гули (1865 - 12 август 1903) — македонски револуционер со влашко потекло, учесник во македонското револуционерно движење, член и војвода на Македонската револуционерна организација.\nСовременици сведочат дека Питу Гули имал завршено",
    "historic" : "monument",
    "investitor" : "Општина Центар",
    "learnica" : "Уметничка леарница Јеремиќ",
    "name" : "Питу Гули",
    "start_date" : "2012"
  },
  "nodes" : null,
  "members" : null
}, {
  "type" : "node",
  "id" : 367860262,
  "lat" : 42.0032812,
  "lon" : 21.4233737,
  "tags" : {
    "historic" : "monument",
    "name" : "Гоце Делчев"
  },
  "nodes" : null,
  "members" : null
}, {
  "type" : "node",
  "id" : 369750026,
  "lat" : 42.0008716,
  "lon" : 21.4338778,
  "tags" : {
    "access" : "no",
    "barrier" : "entrance",
    "historic" : "city_gate",
    "name" : "Влез на Скопското кале",
    "name:en" : "Skopje Fortress Gate"
  },
  "nodes" : null,
  "members" : null
}, {
  "type" : "node",
  "id" : 373488269,
  "lat" : 42.0195738,
  "lon" : 20.960153,
  "tags" : {
    "historic" : "ruins",
    "name" : "Тетовско Кале",
    "name:en" : "Tetovo Fortress",
    "wikidata" : "Q12910952",
    "wikipedia" : "mk:Тетовско кале"
  },
  "nodes" : null,
  "members" : null
}, {
  "type" : "node",
  "id" : 382646189,
  "lat" : 41.4336787,
  "lon" : 22.0195297,
  "tags" : {
    "historic" : "monument"
  },
  "nodes" : null,
  "members" : null
}, {
  "type" : "node",
  "id" : 390757432,
  "lat" : 41.1151632,
  "lon" : 20.7912433,
  "tags" : {
    "historic" : "ruins"
  },
  "nodes" : null,
  "members" : null
}, {
  "type" : "node",
  "id" : 390757439,
  "lat" : 41.1155576,
  "lon" : 20.7914836,
  "tags" : {
    "historic" : "archaeological_site",
    "name" : "Лихнид",
    "name:la" : "Lychnidos",
    "wikipedia" : "it:Lychnidos"
  },
  "nodes" : null,
  "members" : null
}, {
  "type" : "node",
  "id" : 410115785,
  "lat" : 41.3880768,
  "lon" : 21.2273776,
  "tags" : {
    "historic" : "monument",
    "int_name" : "Sliva",
    "name" : "Слива"
  },
  "nodes" : null,
  "members" : null
}, {
  "type" : "node",
  "id" : 414714609,
  "lat" : 41.5113691,
  "lon" : 21.6904592,
  "tags" : {
    "ele" : "368.7886963",
    "historic" : "monument"
  },
  "nodes" : null,
  "members" : null
}, {
  "type" : "node",
  "id" : 466248928,
  "lat" : 42.0347813,
  "lon" : 22.3551848,
  "tags" : {
    "name" : "Хотел Изгрев",
    "tourism" : "alpine_hut"
  },
  "nodes" : null,
  "members" : null
}, {
  "type" : "node",
  "id" : 470410033,
  "lat" : 42.184771,
  "lon" : 21.127279,
  "tags" : {
    "alt_name" : "Планинарски дом Љуботен",
    "ele" : "1645",
    "name" : "Љуботен",
    "name:bg" : "хижа \"Люботрън\"",
    "name:en" : "Ljuboten",
    "name:sr" : "Планинарски дом Љуботен",
    "name:sr-Latn" : "Planinarski dom Ljuboten",
    "operator" : "ИГМ „Вратница“ - Вратница",
    "population" : "0",
    "tourism" : "alpine_hut",
    "wikidata" : "Q50136317"
  },
  "nodes" : null,
  "members" : null
}, {
  "type" : "node",
  "id" : 473902990,
  "lat" : 42.2916094,
  "lon" : 22.3507979,
  "tags" : {
    "historic" : "monument",
    "name" : "WWII Battle - 17th Macedonian Brigade ws Bulgarian army",
    "name:mk" : "2ра Светска војна - Битка помеѓу 17та Македонска Ударна Бригада и Бугарската војска"
  },
  "nodes" : null,
  "members" : null
}, {
  "type" : "node",
  "id" : 478699817,
  "lat" : 41.7077548,
  "lon" : 22.8566138,
  "tags" : {
    "name" : "Музеј на град Берово",
    "name:en" : "Berovo Town Museum",
    "tourism" : "museum",
    "website" : "http://www.berovo.gov.mk/index.php?option=com_content&view=article&id=76&Itemid=117"
  },
  "nodes" : null,
  "members" : null
}, {
  "type" : "node",
  "id" : 495558836,
  "lat" : 41.1776616,
  "lon" : 20.679835,
  "tags" : {
    "historic" : "monument",
    "int_name" : "Spomenik na Revolucijata",
    "name" : "Споменик на Револуцијата",
    "name:en" : "Monument of the Revolution"
  },
  "nodes" : null,
  "members" : null
}, {
  "type" : "node",
  "id" : 529811458,
  "lat" : 41.4343634,
  "lon" : 22.0163228,
  "tags" : {
    "name" : "Музеј Галерија Кавадарци",
    "name:en" : "Muzej Galerija Kavadarci",
    "tourism" : "museum"
  },
  "nodes" : null,
  "members" : null
}, {
  "type" : "node",
  "id" : 534925163,
  "lat" : 41.112361,
  "lon" : 20.7961416,
  "tags" : {
    "addr:housenumber" : "62",
    "addr:street" : "Цар Самоил",
    "building" : "house",
    "int_name" : "Robev Family House",
    "name" : "Куќа на Робевци",
    "name:en" : "Robev Family House",
    "name:fr" : "Maison de la famille Robev — Musée archéologique de la ville",
    "name:tr" : "Robevi Evi",
    "name:zh" : "罗贝夫家族宅邸国家博物馆",
    "opening_hours" : "Tu-Su 09:00-14:00",
    "tourism" : "museum",
    "website" : "http://muzejohrid.mk/en/house-of-robev-family"
  },
  "nodes" : null,
  "members" : null
}, {
  "type" : "node",
  "id" : 548009375,
  "lat" : 41.9654096,
  "lon" : 21.3950771,
  "tags" : {
    "alt" : "1060",
    "alt_name" : "Планинарски Дом Даре Џамбаз",
    "capacity" : "35",
    "disused:tourism" : "alpine_hut",
    "name" : "Планинарски дом „Даре Џамбаз“",
    "name:en" : "Dare Dzhambaz",
    "operator" : "ПСД „Бистра“ - Скопје",
    "tourism" : "alpine_hut",
    "wikidata" : "Q12909583"
  },
  "nodes" : null,
  "members" : null
}, {
  "type" : "node",
  "id" : 874492834,
  "lat" : 41.4360595,
  "lon" : 21.1938677,
  "tags" : {
    "tourism" : "alpine_hut"
  },
  "nodes" : null,
  "members" : null
}, {
  "type" : "node",
  "id" : 874493225,
  "lat" : 41.4362042,
  "lon" : 21.1926768,
  "tags" : {
    "tourism" : "alpine_hut"
  },
  "nodes" : null,
  "members" : null
}, {
  "type" : "node",
  "id" : 908273421,
  "lat" : 41.9959035,
  "lon" : 21.4314474,
  "tags" : {
    "artist_name" : "Валентина Стефановска",
    "artwork_type" : "statue",
    "historic" : "monument",
    "int_name" : "Voin na Konj",
    "layer" : "2",
    "memorial" : "statue",
    "name" : "Споменик на Александар Македонски",
    "name:en" : "Statue of Alexander the Great",
    "start_date" : "08.09.2011",
    "tourism" : "artwork",
    "wikidata" : "Q3497603",
    "wikimedia_commons" : "Category:Warrior on Horseback (Skopje)",
    "wikipedia" : "mk:Воин на коњ (Скопје)"
  },
  "nodes" : null,
  "members" : null
}, {
  "type" : "node",
  "id" : 1234758726,
  "lat" : 41.7107367,
  "lon" : 22.8518197,
  "tags" : {
    "name" : "На Филип Кашчата",
    "tourism" : "chalet"
  },
  "nodes" : null,
  "members" : null
}, {
  "type" : "node",
  "id" : 1272898175,
  "lat" : 41.8841902,
  "lon" : 22.5049622,
  "tags" : {
    "addr:housenumber" : "1a",
    "name" : "Museum Teracotta",
    "tourism" : "museum"
  },
  "nodes" : null,
  "members" : null
}, {
  "type" : "node",
  "id" : 1310339037,
  "lat" : 41.363211,
  "lon" : 22.9650942,
  "tags" : {
    "boundary" : "marker",
    "historic" : "boundary_stone",
    "marker" : "stone",
    "name" : "5"
  },
  "nodes" : null,
  "members" : null
}, {
  "type" : "node",
  "id" : 1452854994,
  "lat" : 41.6346281,
  "lon" : 20.5620379,
  "tags" : {
    "historic" : "memorial",
    "name" : "Lukov",
    "was:natural" : "spring"
  },
  "nodes" : null,
  "members" : null
}, {
  "type" : "node",
  "id" : 1475328742,
  "lat" : 42.0586697,
  "lon" : 21.3527926,
  "tags" : {
    "historic" : "archaeological_site",
    "is_in" : "Orman",
    "name" : "Rimska crkva"
  },
  "nodes" : null,
  "members" : null
}, {
  "type" : "node",
  "id" : 1475331129,
  "lat" : 42.0843452,
  "lon" : 21.3548716,
  "tags" : {
    "archaeological_site" : "fortification",
    "historic" : "archaeological_site",
    "int_name" : "Davina Kula",
    "name" : "Давина Кула",
    "name:en" : "Davina Kula"
  },
  "nodes" : null,
  "members" : null
}, {
  "type" : "node",
  "id" : 1475333181,
  "lat" : 42.0587494,
  "lon" : 21.2786993,
  "tags" : {
    "historic" : "archaeological_site",
    "name" : "Голема Кула - Кучково"
  },
  "nodes" : null,
  "members" : null
}, {
  "type" : "node",
  "id" : 1475333182,
  "lat" : 42.0585741,
  "lon" : 21.2844339,
  "tags" : {
    "historic" : "archaeological_site",
    "name" : "Мала Кула - Кучково"
  },
  "nodes" : null,
  "members" : null
}, {
  "type" : "node",
  "id" : 1612141331,
  "lat" : 41.3534717,
  "lon" : 22.9655541,
  "tags" : {
    "boundary" : "marker",
    "ele" : "1027.2",
    "historic" : "boundary_stone",
    "marker" : "stone",
    "name" : "4"
  },
  "nodes" : null,
  "members" : null
}, {
  "type" : "node",
  "id" : 1612141343,
  "lat" : 41.3649798,
  "lon" : 22.964952,
  "tags" : {
    "boundary" : "marker",
    "historic" : "boundary_stone",
    "marker" : "stone",
    "name" : "6"
  },
  "nodes" : null,
  "members" : null
}, {
  "type" : "node",
  "id" : 1612141345,
  "lat" : 41.3667003,
  "lon" : 22.9645721,
  "tags" : {
    "boundary" : "marker",
    "historic" : "boundary_stone",
    "marker" : "stone",
    "name" : "7"
  },
  "nodes" : null,
  "members" : null
}, {
  "type" : "node",
  "id" : 1612141347,
  "lat" : 41.3682443,
  "lon" : 22.9643552,
  "tags" : {
    "boundary" : "marker",
    "historic" : "boundary_stone",
    "marker" : "stone",
    "name" : "8"
  },
  "nodes" : null,
  "members" : null
}, {
  "type" : "node",
  "id" : 1612141348,
  "lat" : 41.3692174,
  "lon" : 22.9640182,
  "tags" : {
    "boundary" : "marker",
    "historic" : "boundary_stone",
    "marker" : "stone",
    "name" : "9"
  },
  "nodes" : null,
  "members" : null
}, {
  "type" : "node",
  "id" : 1612141349,
  "lat" : 41.3704535,
  "lon" : 22.9637614,
  "tags" : {
    "boundary" : "marker",
    "historic" : "boundary_stone",
    "marker" : "stone",
    "name" : "10"
  },
  "nodes" : null,
  "members" : null
}, {
  "type" : "node",
  "id" : 1612141350,
  "lat" : 41.371345,
  "lon" : 22.963565,
  "tags" : {
    "boundary" : "marker",
    "historic" : "boundary_stone",
    "marker" : "stone",
    "name" : "11"
  },
  "nodes" : null,
  "members" : null
}, {
  "type" : "node",
  "id" : 1612141351,
  "lat" : 41.3721284,
  "lon" : 22.9631755,
  "tags" : {
    "boundary" : "marker",
    "historic" : "boundary_stone",
    "marker" : "stone",
    "name" : "12"
  },
  "nodes" : null,
  "members" : null
}, {
  "type" : "node",
  "id" : 1612141352,
  "lat" : 41.3728977,
  "lon" : 22.9630541,
  "tags" : {
    "boundary" : "marker",
    "historic" : "boundary_stone",
    "marker" : "stone",
    "name" : "13"
  },
  "nodes" : null,
  "members" : null
}, {
  "type" : "node",
  "id" : 1612141353,
  "lat" : 41.3739433,
  "lon" : 22.9628253,
  "tags" : {
    "boundary" : "marker",
    "historic" : "boundary_stone",
    "marker" : "stone",
    "name" : "14"
  },
  "nodes" : null,
  "members" : null
}, {
  "type" : "node",
  "id" : 1612141354,
  "lat" : 41.3755256,
  "lon" : 22.9632889,
  "tags" : {
    "boundary" : "marker",
    "historic" : "boundary_stone",
    "marker" : "stone",
    "name" : "15"
  },
  "nodes" : null,
  "members" : null
}, {
  "type" : "node",
  "id" : 1612141357,
  "lat" : 41.3786524,
  "lon" : 22.9621967,
  "tags" : {
    "boundary" : "marker",
    "ele" : "270.1",
    "historic" : "boundary_stone",
    "marker" : "stone",
    "name" : "16"
  },
  "nodes" : null,
  "members" : null
}, {
  "type" : "node",
  "id" : 1612141363,
  "lat" : 41.3839589,
  "lon" : 22.9628726,
  "tags" : {
    "boundary" : "marker",
    "historic" : "boundary_stone",
    "marker" : "stone",
    "name" : "19"
  },
  "nodes" : null,
  "members" : null
}, {
  "type" : "node",
  "id" : 1612141367,
  "lat" : 41.3859009,
  "lon" : 22.9631941,
  "tags" : {
    "boundary" : "marker",
    "historic" : "boundary_stone",
    "marker" : "stone",
    "name" : "20"
  },
  "nodes" : null,
  "members" : null
}, {
  "type" : "node",
  "id" : 1612141373,
  "lat" : 41.3891975,
  "lon" : 22.9642834,
  "tags" : {
    "boundary" : "marker",
    "historic" : "boundary_stone",
    "marker" : "stone",
    "name" : "21"
  },
  "nodes" : null,
  "members" : null
}, {
  "type" : "node",
  "id" : 1612141381,
  "lat" : 41.3931081,
  "lon" : 22.9667134,
  "tags" : {
    "boundary" : "marker",
    "historic" : "boundary_stone",
    "marker" : "stone",
    "name" : "22"
  },
  "nodes" : null,
  "members" : null
}, {
  "type" : "node",
  "id" : 1612141385,
  "lat" : 41.3964028,
  "lon" : 22.966126,
  "tags" : {
    "boundary" : "marker",
    "historic" : "boundary_stone",
    "marker" : "stone",
    "name" : "25"
  },
  "nodes" : null,
  "members" : null
}, {
  "type" : "node",
  "id" : 1612141398,
  "lat" : 41.4070803,
  "lon" : 22.9615881,
  "tags" : {
    "boundary" : "marker",
    "ele" : "358.6",
    "historic" : "boundary_stone",
    "marker" : "stone",
    "name" : "27"
  },
  "nodes" : null,
  "members" : null
}, {
  "type" : "node",
  "id" : 1612141411,
  "lat" : 41.4174975,
  "lon" : 22.9520216,
  "tags" : {
    "boundary" : "marker",
    "ele" : "454.9",
    "historic" : "boundary_stone",
    "marker" : "stone",
    "name" : "28"
  },
  "nodes" : null,
  "members" : null
}, {
  "type" : "node",
  "id" : 1612141458,
  "lat" : 41.4400834,
  "lon" : 22.9746504,
  "tags" : {
    "boundary" : "marker",
    "ele" : "771.5",
    "historic" : "boundary_stone",
    "marker" : "stone",
    "name" : "30"
  },
  "nodes" : null,
  "members" : null
}, {
  "type" : "node",
  "id" : 1612143468,
  "lat" : 42.1102442,
  "lon" : 22.5899869,
  "tags" : {
    "boundary" : "marker",
    "ele" : "1748.8",
    "historic" : "boundary_stone",
    "marker" : "stone",
    "name" : "Куцолиница / 86",
    "natural" : "peak"
  },
  "nodes" : null,
  "members" : null
}, {
  "type" : "node",
  "id" : 1612143496,
  "lat" : 42.1119645,
  "lon" : 22.5770819,
  "tags" : {
    "boundary" : "marker",
    "ele" : "1751.78",
    "historic" : "boundary_stone",
    "marker" : "stone",
    "name" : "87"
  },
  "nodes" : null,
  "members" : null
}, {
  "type" : "node",
  "id" : 1612143672,
  "lat" : 42.1551091,
  "lon" : 22.5104573,
  "tags" : {
    "boundary" : "marker",
    "historic" : "boundary_stone",
    "marker" : "stone",
    "name" : "90"
  },
  "nodes" : null,
  "members" : null
}, {
  "type" : "node",
  "id" : 1612155052,
  "lat" : 42.3089612,
  "lon" : 22.3705411,
  "tags" : {
    "boundary" : "marker",
    "ele" : "1327.6",
    "historic" : "boundary_stone",
    "marker" : "stone",
    "name" : "Китка",
    "natural" : "peak",
    "ref" : "105"
  },
  "nodes" : null,
  "members" : null
}, {
  "type" : "node",
  "id" : 1696045002,
  "lat" : 42.1580093,
  "lon" : 22.5162744,
  "tags" : {
    "alt_name" : "PUEH",
    "boundary" : "marker",
    "ele" : "2251.4",
    "historic" : "boundary_stone",
    "importance" : "Bulgarian 100",
    "int_name" : "Ruen",
    "man_made" : "survey_point",
    "marker" : "stone",
    "name" : "Руен",
    "name:de" : "Ruen",
    "name:el" : "κορυφή Ρούεν",
    "name:en" : "Ruen",
    "name:fr" : "Pic Rouen",
    "name:mk" : "Руен",
    "natural" : "peak",
    "prominence" : "1416",
    "source" : "bgtopomaps",
    "wikidata" : "Q46499",
    "wikipedia" : "bg:Руен"
  },
  "nodes" : null,
  "members" : null
}, {
  "type" : "node",
  "id" : 1708412126,
  "lat" : 42.1355189,
  "lon" : 21.7200501,
  "tags" : {
    "historic" : "monument",
    "layer" : "2",
    "name" : "Zena",
    "name:mk" : "Жена"
  },
  "nodes" : null,
  "members" : null
}, {
  "type" : "node",
  "id" : 1734593430,
  "lat" : 42.0766913,
  "lon" : 21.398848,
  "tags" : {
    "historic" : "archaeological_site",
    "name" : "Gradiste kaj s.Brazda"
  },
  "nodes" : null,
  "members" : null
}, {
  "type" : "node",
  "id" : 1786613380,
  "lat" : 41.0330959,
  "lon" : 21.2190362,
  "tags" : {
    "abandoned" : "yes",
    "alt_name" : "Планинарски Дом Копанки",
    "alt_name:en" : "Planinarski Dom Kopanki",
    "ele" : "1554",
    "int_name" : "Kopanki",
    "name" : "Копанки",
    "name:en" : "Kopanki",
    "operator" : "ПД „Пелистер“ - Битола",
    "source" : "user knowledge",
    "tourism" : "alpine_hut"
  },
  "nodes" : null,
  "members" : null
}, {
  "type" : "node",
  "id" : 1790711188,
  "lat" : 41.3962021,
  "lon" : 22.9526962,
  "tags" : {
    "historic" : "monument"
  },
  "nodes" : null,
  "members" : null
}, {
  "type" : "node",
  "id" : 1791491746,
  "lat" : 41.3867493,
  "lon" : 22.7529708,
  "tags" : {
    "historic" : "memorial"
  },
  "nodes" : null,
  "members" : null
}, {
  "type" : "node",
  "id" : 1791598051,
  "lat" : 41.2403357,
  "lon" : 22.7177144,
  "tags" : {
    "tourism" : "chalet"
  },
  "nodes" : null,
  "members" : null
}, {
  "type" : "node",
  "id" : 1791598060,
  "lat" : 41.2409569,
  "lon" : 22.7161909,
  "tags" : {
    "tourism" : "caravan_site"
  },
  "nodes" : null,
  "members" : null
}, {
  "type" : "node",
  "id" : 1853704787,
  "lat" : 41.1871817,
  "lon" : 22.7221034,
  "tags" : {
    "name" : "Музеј на Дојран",
    "tourism" : "museum"
  },
  "nodes" : null,
  "members" : null
}, {
  "type" : "node",
  "id" : 1857486060,
  "lat" : 42.0017233,
  "lon" : 21.4617772,
  "tags" : {
    "historic" : "monument",
    "layer" : "1",
    "name" : "Филип Втори"
  },
  "nodes" : null,
  "members" : null
}, {
  "type" : "node",
  "id" : 1859114111,
  "lat" : 41.9984602,
  "lon" : 21.4349949,
  "tags" : {
    "artwork_type" : "statue",
    "historic" : "memorial",
    "image" : "https://upload.wikimedia.org/wikipedia/commons/d/d2/Philip_II_of_Macedon_monument_in_Skopje.JPG",
    "inscription" : "Филип II Македонски",
    "memorial" : "statue",
    "name" : "Филип II Македонски",
    "name:de" : "Philipp II. (Makedonien)",
    "name:en" : "Philip II of Macedon",
    "name:pl" : "Filip II Macedoński",
    "subject:wikidata" : "Q130650",
    "subject:wikipedia" : "mk:Филип II Македонски",
    "tourism" : "artwork"
  },
  "nodes" : null,
  "members" : null
}, {
  "type" : "node",
  "id" : 1866944575,
  "lat" : 41.9983057,
  "lon" : 21.4254968,
  "tags" : {
    "artwork_type" : "statue",
    "historic" : "memorial",
    "inscription" : "Св. Климент Охридски",
    "int_name" : "Sv. Kliment Ohridski",
    "memorial" : "statue",
    "name" : "Св. Климент Охридски",
    "name:en" : "Clement of Ohrid",
    "tourism" : "artwork",
    "wikidata" : "Q158504",
    "wikipedia" : "mk:Свети Климент Охридски"
  },
  "nodes" : null,
  "members" : null
}, {
  "type" : "node",
  "id" : 1867151652,
  "lat" : 41.9993163,
  "lon" : 21.437162,
  "tags" : {
    "artwork_type" : "statue",
    "historic" : "memorial",
    "inscription" : "Скендербег",
    "memorial" : "statue",
    "name" : "Скендербег",
    "name:de" : "Skanderbeg",
    "name:en" : "Skanderbeg",
    "name:sq" : "Skënderbeu",
    "tourism" : "artwork",
    "wikidata" : "Q12289741",
    "wikimedia_commons" : "Category:Skenderbeg Monument (Skopje)",
    "wikipedia" : "en:Skanderbeg"
  },
  "nodes" : null,
  "members" : null
}, {
  "type" : "node",
  "id" : 1867606193,
  "lat" : 40.8570205,
  "lon" : 21.1195933,
  "tags" : {
    "historic" : "monument",
    "name" : "Маркова Нога",
    "source" : "Bing"
  },
  "nodes" : null,
  "members" : null
}, {
  "type" : "node",
  "id" : 1880656140,
  "lat" : 41.9966896,
  "lon" : 21.549603,
  "tags" : {
    "int_name" : "Bellevue",
    "name" : "Белви",
    "tourism" : "caravan_site"
  },
  "nodes" : null,
  "members" : null
}, {
  "type" : "node",
  "id" : 1911159138,
  "lat" : 41.190428,
  "lon" : 22.2825627,
  "tags" : {
    "int_name" : "Smrdliva Voda",
    "name" : "Смрдлива Вода",
    "place" : "locality",
    "tourism" : "yes",
    "wikidata" : "Q22088931"
  },
  "nodes" : null,
  "members" : null
}, {
  "type" : "node",
  "id" : 1920245399,
  "lat" : 42.1820228,
  "lon" : 22.1635034,
  "tags" : {
    "tourism" : "zoo"
  },
  "nodes" : null,
  "members" : null
}, {
  "type" : "node",
  "id" : 1970006597,
  "lat" : 41.340338,
  "lon" : 22.9351752,
  "tags" : {
    "boundary" : "marker",
    "ele" : "1802.3",
    "historic" : "boundary_stone",
    "marker" : "stone",
    "name" : "2"
  },
  "nodes" : null,
  "members" : null
}, {
  "type" : "node",
  "id" : 1970006598,
  "lat" : 41.3524982,
  "lon" : 22.9527929,
  "tags" : {
    "boundary" : "marker",
    "historic" : "boundary_stone",
    "marker" : "stone",
    "name" : "3"
  },
  "nodes" : null,
  "members" : null
}, {
  "type" : "node",
  "id" : 1995790447,
  "lat" : 42.1355778,
  "lon" : 21.7194275,
  "tags" : {
    "historic" : "monument",
    "int_name" : "Josip Broz - Tito",
    "name" : "Јосип Броз - Тито"
  },
  "nodes" : null,
  "members" : null
}, {
  "type" : "node",
  "id" : 1999950857,
  "lat" : 41.4168996,
  "lon" : 22.2617922,
  "tags" : {
    "historic" : "ruins",
    "historic:civilization" : "medieval"
  },
  "nodes" : null,
  "members" : null
}, {
  "type" : "node",
  "id" : 1999950859,
  "lat" : 41.381851,
  "lon" : 22.2700695,
  "tags" : {
    "historic" : "ruins"
  },
  "nodes" : null,
  "members" : null
}, {
  "type" : "node",
  "id" : 1999950866,
  "lat" : 41.4085959,
  "lon" : 22.2447656,
  "tags" : {
    "name" : "Museum of Wine",
    "name:mk" : "Музеј на Биното",
    "tourism" : "museum"
  },
  "nodes" : null,
  "members" : null
}, {
  "type" : "node",
  "id" : 1999950867,
  "lat" : 41.4012005,
  "lon" : 22.2538529,
  "tags" : {
    "historic" : "ruins"
  },
  "nodes" : null,
  "members" : null
}, {
  "type" : "node",
  "id" : 1999950869,
  "lat" : 41.3916552,
  "lon" : 22.2563366,
  "tags" : {
    "historic" : "ruins"
  },
  "nodes" : null,
  "members" : null
}, {
  "type" : "node",
  "id" : 1999950887,
  "lat" : 41.4056225,
  "lon" : 22.2491215,
  "tags" : {
    "historic" : "castle"
  },
  "nodes" : null,
  "members" : null
}, {
  "type" : "node",
  "id" : 1999960679,
  "lat" : 41.4066304,
  "lon" : 22.2459833,
  "tags" : {
    "capacity" : "44",
    "name" : "Калабастер",
    "name:en" : "Kalabaster",
    "operator" : "ФПСМ - СКА",
    "tourism" : "alpine_hut"
  },
  "nodes" : null,
  "members" : null
}, {
  "type" : "node",
  "id" : 2015829492,
  "lat" : 41.4094203,
  "lon" : 22.2541295,
  "tags" : {
    "historic" : "ruins",
    "int_name" : "Markov Grad",
    "name" : "Марков Град",
    "name:en" : "Markov Grad"
  },
  "nodes" : null,
  "members" : null
}, {
  "type" : "node",
  "id" : 2024605293,
  "lat" : 42.2888675,
  "lon" : 22.0459031,
  "tags" : {
    "alpine_hut" : "disused",
    "name" : "Длабочица",
    "tourism" : "alpine_hut"
  },
  "nodes" : null,
  "members" : null
}, {
  "type" : "node",
  "id" : 2026119373,
  "lat" : 41.794932,
  "lon" : 20.9108574,
  "tags" : {
    "historic" : "monument",
    "name" : "Sahat Kula"
  },
  "nodes" : null,
  "members" : null
}, {
  "type" : "node",
  "id" : 2026891418,
  "lat" : 42.1068795,
  "lon" : 21.1545235,
  "tags" : {
    "historic" : "ruins",
    "name" : "Орашко Кале",
    "name:en" : "Orashko Kale"
  },
  "nodes" : null,
  "members" : null
}, {
  "type" : "node",
  "id" : 2026911763,
  "lat" : 41.5119269,
  "lon" : 20.9702432,
  "tags" : {
    "historic" : "monument",
    "name" : "Саат кула",
    "name:sq" : "Sahat Kulla"
  },
  "nodes" : null,
  "members" : null
}, {
  "type" : "node",
  "id" : 2026930302,
  "lat" : 41.7140782,
  "lon" : 21.7840512,
  "tags" : {
    "historic" : "monument",
    "name" : "Саат кула"
  },
  "nodes" : null,
  "members" : null
}, {
  "type" : "node",
  "id" : 2026975410,
  "lat" : 41.2775784,
  "lon" : 22.4937679,
  "tags" : {
    "historic" : "archaeological_site",
    "name" : "Isar / Idomenae"
  },
  "nodes" : null,
  "members" : null
}, {
  "type" : "node",
  "id" : 2136716883,
  "lat" : 42.1346962,
  "lon" : 21.7192303,
  "tags" : {
    "historic" : "monument",
    "int_name" : "Kude sat",
    "name" : "Куде сат"
  },
  "nodes" : null,
  "members" : null
}, {
  "type" : "node",
  "id" : 2138788013,
  "lat" : 41.4293251,
  "lon" : 21.7629669,
  "tags" : {
    "ele" : "727",
    "historic" : "memorial",
    "name" : "Ножот",
    "natural" : "peak",
    "wikidata" : "Q12273269",
    "wikipedia" : "mk:Битка на Ножот"
  },
  "nodes" : null,
  "members" : null
}, {
  "type" : "node",
  "id" : 2189840728,
  "lat" : 41.3451182,
  "lon" : 21.5519842,
  "tags" : {
    "historic" : "monument",
    "name" : "Народен Херој Кузман Јосифоски-Питу",
    "name:en" : "People's hero Kuzman Josifoski-Pitu",
    "name:mk" : "Народен Херој Кузман Јосифоски-Питу"
  },
  "nodes" : null,
  "members" : null
}, {
  "type" : "node",
  "id" : 2189840898,
  "lat" : 41.3451518,
  "lon" : 21.554267,
  "tags" : {
    "historic" : "monument",
    "name" : "Пеце Атанасоски"
  },
  "nodes" : null,
  "members" : null
}, {
  "type" : "node",
  "id" : 2189840958,
  "lat" : 41.3452617,
  "lon" : 21.5522173,
  "tags" : {
    "historic" : "monument",
    "name" : "Ѓорче Петров",
    "name:en" : "Gjorche Petrov"
  },
  "nodes" : null,
  "members" : null
}, {
  "type" : "node",
  "id" : 2268500979,
  "lat" : 41.3748344,
  "lon" : 21.2480535,
  "tags" : {
    "historic" : "tomb",
    "name" : "Питу Гули",
    "tomb" : "tombstone"
  },
  "nodes" : null,
  "members" : null
}, {
  "type" : "node",
  "id" : 2268500995,
  "lat" : 41.3748686,
  "lon" : 21.2482546,
  "tags" : {
    "historic" : "tomb",
    "name" : "Тоше Проески",
    "tomb" : "tombstone"
  },
  "nodes" : null,
  "members" : null
}, {
  "type" : "node",
  "id" : 2269431831,
  "lat" : 41.3736665,
  "lon" : 21.2463296,
  "tags" : {
    "historic" : "monument",
    "name" : "Никола Карев"
  },
  "nodes" : null,
  "members" : null
}, {
  "type" : "node",
  "id" : 2279507279,
  "lat" : 41.1805738,
  "lon" : 20.6776078,
  "tags" : {
    "name" : "Д-р Никола Незлобински",
    "tourism" : "museum"
  },
  "nodes" : null,
  "members" : null
}, {
  "type" : "node",
  "id" : 2282899086,
  "lat" : 41.3818263,
  "lon" : 22.9625526,
  "tags" : {
    "boundary" : "marker",
    "historic" : "boundary_stone",
    "marker" : "stone",
    "name" : "18"
  },
  "nodes" : null,
  "members" : null
}, {
  "type" : "node",
  "id" : 2282899090,
  "lat" : 41.3969922,
  "lon" : 22.965619,
  "tags" : {
    "boundary" : "marker",
    "historic" : "boundary_stone",
    "marker" : "stone",
    "name" : "26"
  },
  "nodes" : null,
  "members" : null
}, {
  "type" : "node",
  "id" : 2282899093,
  "lat" : 41.4533981,
  "lon" : 22.9762168,
  "tags" : {
    "boundary" : "marker",
    "ele" : "1020.0",
    "historic" : "boundary_stone",
    "marker" : "stone",
    "name" : "31"
  },
  "nodes" : null,
  "members" : null
}, {
  "type" : "node",
  "id" : 2282899098,
  "lat" : 41.4723462,
  "lon" : 22.9662076,
  "tags" : {
    "boundary" : "marker",
    "ele" : "1322.5",
    "historic" : "boundary_stone",
    "marker" : "stone",
    "name" : "32"
  },
  "nodes" : null,
  "members" : null
}, {
  "type" : "node",
  "id" : 2282899105,
  "lat" : 41.4930169,
  "lon" : 22.9585216,
  "tags" : {
    "boundary" : "marker",
    "ele" : "1472.1",
    "historic" : "boundary_stone",
    "marker" : "stone",
    "name" : "34"
  },
  "nodes" : null,
  "members" : null
}, {
  "type" : "node",
  "id" : 2282899109,
  "lat" : 41.5295396,
  "lon" : 22.9605185,
  "tags" : {
    "boundary" : "marker",
    "ele" : "1233.2",
    "historic" : "boundary_stone",
    "marker" : "stone",
    "name" : "35"
  },
  "nodes" : null,
  "members" : null
}, {
  "type" : "node",
  "id" : 2282899114,
  "lat" : 41.5423737,
  "lon" : 22.9604199,
  "tags" : {
    "boundary" : "marker",
    "ele" : "1271.4",
    "historic" : "boundary_stone",
    "marker" : "stone",
    "name" : "36"
  },
  "nodes" : null,
  "members" : null
}, {
  "type" : "node",
  "id" : 2316156260,
  "lat" : 41.0252483,
  "lon" : 21.3365121,
  "tags" : {
    "historic" : "memorial"
  },
  "nodes" : null,
  "members" : null
}, {
  "type" : "node",
  "id" : 2316156278,
  "lat" : 41.024615,
  "lon" : 21.3368929,
  "tags" : {
    "historic" : "memorial",
    "name" : "Стефан Наумов-Стив",
    "name:en" : "Stefan Naumov-Stiv"
  },
  "nodes" : null,
  "members" : null
}, {
  "type" : "node",
  "id" : 2323236969,
  "lat" : 41.1423016,
  "lon" : 22.5090711,
  "tags" : {
    "tourism" : "museum"
  },
  "nodes" : null,
  "members" : null
}, {
  "type" : "node",
  "id" : 2323236970,
  "lat" : 41.1401281,
  "lon" : 22.5026606,
  "tags" : {
    "artwork_type" : "statue",
    "tourism" : "artwork"
  },
  "nodes" : null,
  "members" : null
}, {
  "type" : "node",
  "id" : 2323236973,
  "lat" : 41.1401322,
  "lon" : 22.5051926,
  "tags" : {
    "historic" : "memorial",
    "memorial" : "statue"
  },
  "nodes" : null,
  "members" : null
}, {
  "type" : "node",
  "id" : 2327281126,
  "lat" : 41.3649692,
  "lon" : 21.2497316,
  "tags" : {
    "historic" : "monument",
    "int_name" : "Pitu Guli",
    "name" : "Споменик на Питу Гули",
    "name:en" : "Statue of Pitu Guli"
  },
  "nodes" : null,
  "members" : null
}, {
  "type" : "node",
  "id" : 2330629820,
  "lat" : 41.3653856,
  "lon" : 21.2484409,
  "tags" : {
    "historic" : "monument",
    "inscription" : "Наум Наумоски-Борче\n01.09.1920 - 28.09.1960",
    "material" : "bronze",
    "memorial" : "bust",
    "name" : "Наум Наумоски-Борче",
    "name:en" : "Naum Naumoski-Borche",
    "name:mk" : "Наум Наумоски-Борче"
  },
  "nodes" : null,
  "members" : null
}, {
  "type" : "node",
  "id" : 2350137461,
  "lat" : 41.5516379,
  "lon" : 21.9751675,
  "tags" : {
    "historic" : "ruins",
    "name" : "Римски театар",
    "name:en" : "Roman theater",
    "wikidata" : "Q1371168",
    "wikipedia" : "en:Stobi"
  },
  "nodes" : null,
  "members" : null
}, {
  "type" : "node",
  "id" : 2360747213,
  "lat" : 41.1458586,
  "lon" : 22.5001795,
  "tags" : {
    "historic" : "monument",
    "name" : "Два Коња"
  },
  "nodes" : null,
  "members" : null
}, {
  "type" : "node",
  "id" : 2437861604,
  "lat" : 40.9756451,
  "lon" : 20.9130921,
  "tags" : {
    "tourism" : "camp_site"
  },
  "nodes" : null,
  "members" : null
}, {
  "type" : "node",
  "id" : 2535153634,
  "lat" : 41.4184594,
  "lon" : 22.0181317,
  "tags" : {
    "name" : "Спомен куќа на Страшо Пинџур",
    "name:de" : "Gedenkstätte Haus - Strascho Pindjur",
    "name:en" : "Memorial house - Strasho Pindjur",
    "tourism" : "museum"
  },
  "nodes" : null,
  "members" : null
}, {
  "type" : "node",
  "id" : 2545342051,
  "lat" : 40.9765203,
  "lon" : 20.9119981,
  "tags" : {
    "historic" : "monument",
    "name" : "Преспанско Советување"
  },
  "nodes" : null,
  "members" : null
}, {
  "type" : "node",
  "id" : 2578029313,
  "lat" : 42.2020133,
  "lon" : 22.3348959,
  "tags" : {
    "addr:city" : "Kriva Palanka",
    "addr:postcode" : "1330",
    "addr:street" : "Sveti Joakim Osogovski",
    "name" : "City Museum",
    "tourism" : "museum"
  },
  "nodes" : null,
  "members" : null
}, {
  "type" : "node",
  "id" : 2598104053,
  "lat" : 41.3475544,
  "lon" : 21.5564074,
  "tags" : {
    "historic" : "monument",
    "name" : "Карпалак"
  },
  "nodes" : null,
  "members" : null
}, {
  "type" : "node",
  "id" : 2613872315,
  "lat" : 41.0141147,
  "lon" : 20.8347906,
  "tags" : {
    "historic" : "wayside_cross"
  },
  "nodes" : null,
  "members" : null
}, {
  "type" : "node",
  "id" : 2616082758,
  "lat" : 42.1491368,
  "lon" : 21.7853235,
  "tags" : {
    "historic" : "memorial",
    "name" : "Zebrnjak",
    "name:mk" : "Зебрњак",
    "name:sr" : "Зебрњак",
    "wikidata" : "Q3400817",
    "wikipedia" : "en:Zebrnjak"
  },
  "nodes" : null,
  "members" : null
}, {
  "type" : "node",
  "id" : 2759245083,
  "lat" : 41.1126936,
  "lon" : 20.7995376,
  "tags" : {
    "artwork_type" : "statue",
    "historic" : "monument",
    "int_name" : "Saint Klement of Ohrid",
    "name" : "Свети Климент Охридски",
    "name:en" : "Monument St. Clement Ohridski",
    "name:fr" : "Saint Clément d’Ohrid",
    "name:tr" : "Aziz Kliment Anıtı",
    "tourism" : "artwork",
    "wikidata" : "Q158504",
    "wikipedia" : "mk:Свети Климент Охридски"
  },
  "nodes" : null,
  "members" : null
}, {
  "type" : "node",
  "id" : 2759253188,
  "lat" : 41.1120476,
  "lon" : 20.799994,
  "tags" : {
    "artwork_type" : "statue",
    "historic" : "monument",
    "int_name" : "Saints Cyril and Methodius",
    "name" : "Свети Кирил и Методиј",
    "name:en" : "Monuments of Saints Cyril and Methodius",
    "name:fr" : "Saints Cyrille et Méthode",
    "name:mk" : "Saints Cyril and Methodius",
    "name:tr" : "Aziz Kiril ve Aziz Metodius Anıtı",
    "tourism" : "artwork",
    "wikidata" : "Q239925",
    "wikipedia" : "mk:Св. Кирил и Методиј"
  },
  "nodes" : null,
  "members" : null
}, {
  "type" : "node",
  "id" : 2759263738,
  "lat" : 41.1122955,
  "lon" : 20.7990226,
  "tags" : {
    "artwork_type" : "statue",
    "historic" : "monument",
    "int_name" : "Saint Naum",
    "name" : "Свети Наум Охридски Чудотворец",
    "name:en" : "Monument to St. Naum of Ohrid",
    "name:fr" : "Saint Naum",
    "name:tr" : "Aziz Naum Anıtı",
    "tourism" : "artwork",
    "wikidata" : "Q350061",
    "wikipedia" : "mk:Свети Наум Охридски Чудотворец"
  },
  "nodes" : null,
  "members" : null
}, {
  "type" : "node",
  "id" : 2795154377,
  "lat" : 41.1124606,
  "lon" : 20.7977703,
  "tags" : {
    "historic" : "city_gate",
    "name" : "Долна Порта",
    "name:en" : "Lower Gate"
  },
  "nodes" : null,
  "members" : null
}, {
  "type" : "node",
  "id" : 2829462221,
  "lat" : 42.0853984,
  "lon" : 21.9627449,
  "tags" : {
    "historic" : "archaeological_site",
    "name" : "Мачка камен",
    "name:en" : "Macka kamen"
  },
  "nodes" : null,
  "members" : null
}, {
  "type" : "node",
  "id" : 2836787184,
  "lat" : 42.0050975,
  "lon" : 20.942922,
  "tags" : {
    "historic" : "memorial"
  },
  "nodes" : null,
  "members" : null
}, {
  "type" : "node",
  "id" : 2851570672,
  "lat" : 41.4182291,
  "lon" : 21.0770931,
  "tags" : {
    "historic" : "monument",
    "name" : "Христо Узунов",
    "wikidata" : "Q3407165",
    "wikipedia" : "mk:Христо Узунов"
  },
  "nodes" : null,
  "members" : null
}, {
  "type" : "node",
  "id" : 3011065701,
  "lat" : 41.0561451,
  "lon" : 20.8132397,
  "tags" : {
    "height" : "30",
    "historic" : "wayside_cross",
    "material" : "metal",
    "note" : "height roughly estimated"
  },
  "nodes" : null,
  "members" : null
}, {
  "type" : "node",
  "id" : 3014170649,
  "lat" : 41.8038352,
  "lon" : 20.8020471,
  "tags" : {
    "ele" : "1330",
    "name" : "Шарски Води",
    "tourism" : "alpine_hut"
  },
  "nodes" : null,
  "members" : null
}, {
  "type" : "node",
  "id" : 3039854149,
  "lat" : 41.9062629,
  "lon" : 20.9636151,
  "tags" : {
    "historic" : "monument",
    "name" : "Споменик на жртви од НОВ"
  },
  "nodes" : null,
  "members" : null
}, {
  "type" : "node",
  "id" : 3089857461,
  "lat" : 42.145271,
  "lon" : 21.7225477,
  "tags" : {
    "artist:wikidata" : "Q3502919",
    "artwork_type" : "sculpture",
    "name" : "Македонка",
    "tourism" : "artwork"
  },
  "nodes" : null,
  "members" : null
}, {
  "type" : "node",
  "id" : 3409068903,
  "lat" : 41.3460556,
  "lon" : 21.5524989,
  "tags" : {
    "historic" : "monument",
    "name" : "Александар Македонски"
  },
  "nodes" : null,
  "members" : null
}, {
  "type" : "node",
  "id" : 3409068904,
  "lat" : 41.3462544,
  "lon" : 21.5528281,
  "tags" : {
    "historic" : "monument",
    "name" : "Методија Андонов-Ченто"
  },
  "nodes" : null,
  "members" : null
}, {
  "type" : "node",
  "id" : 3409074126,
  "lat" : 41.3462194,
  "lon" : 21.553243,
  "tags" : {
    "historic" : "monument",
    "name" : "Св. Никола"
  },
  "nodes" : null,
  "members" : null
}, {
  "type" : "node",
  "id" : 3409074127,
  "lat" : 41.3464763,
  "lon" : 21.5529446,
  "tags" : {
    "artwork_type" : "bust",
    "name" : "Народен херој Мице Козароски-Јандре",
    "name:en" : "People's hero Mice Kozaroski-Jandre",
    "name:mk" : "Народен херој Мице Козароски-Јандре",
    "tourism" : "artwork"
  },
  "nodes" : null,
  "members" : null
}, {
  "type" : "node",
  "id" : 3418320912,
  "lat" : 41.822914,
  "lon" : 21.7360635,
  "tags" : {
    "historic" : "memorial",
    "name" : "Масакр кај Пуста Кула"
  },
  "nodes" : null,
  "members" : null
}, {
  "type" : "node",
  "id" : 3456913802,
  "lat" : 41.3434323,
  "lon" : 21.5479723,
  "tags" : {
    "historic" : "monument",
    "name" : "Карпалак 2001"
  },
  "nodes" : null,
  "members" : null
}, {
  "type" : "node",
  "id" : 3457966074,
  "lat" : 41.3341123,
  "lon" : 21.554646,
  "tags" : {
    "historic" : "monument",
    "name" : "Крипта",
    "name:en" : "Cript"
  },
  "nodes" : null,
  "members" : null
}, {
  "type" : "node",
  "id" : 3639421034,
  "lat" : 41.6639916,
  "lon" : 21.4285926,
  "tags" : {
    "alt_name" : "Чеплес",
    "facebook" : "https://www.facebook.com/PlaninarskiDomCeples2013?rf=797496093598937",
    "internet_access" : "no",
    "name" : "Чеплес",
    "name:en" : "Cheples",
    "operator" : "ПСК „Солунска глава“ - Велес",
    "phone" : "+389 78 449 002",
    "tourism" : "alpine_hut",
    "wikidata" : "Q12909591",
    "wikipedia" : "mk:Планинарски дом „Чеплез“"
  },
  "nodes" : null,
  "members" : null
}, {
  "type" : "node",
  "id" : 3642663981,
  "lat" : 41.345456,
  "lon" : 21.5548417,
  "tags" : {
    "historic" : "monument",
    "name" : "Итар Пејо",
    "name:en" : "Sly Peter"
  },
  "nodes" : null,
  "members" : null
}, {
  "type" : "node",
  "id" : 3649017967,
  "lat" : 41.7592274,
  "lon" : 22.416989,
  "tags" : {
    "capacity" : "40",
    "ele" : "1107",
    "name" : "Вртешка",
    "name:en" : "Vrteshka",
    "operator" : "ДПС „Лисец“ - Штип",
    "reservation" : "yes",
    "tourism" : "alpine_hut"
  },
  "nodes" : null,
  "members" : null
}, {
  "type" : "node",
  "id" : 3649158213,
  "lat" : 41.6760151,
  "lon" : 21.3049471,
  "tags" : {
    "name" : "Горна Белица",
    "name:en" : "Gorna Belica",
    "operator" : " СД „Пеони“ - Скопје",
    "tourism" : "alpine_hut"
  },
  "nodes" : null,
  "members" : null
}, {
  "type" : "node",
  "id" : 3649158793,
  "lat" : 41.2864493,
  "lon" : 22.3256456,
  "tags" : {
    "capacity" : "40",
    "name" : "Висока Чука",
    "name:en" : "Visoka Chuka",
    "operator" : "ПД „Миравци“ - Миравци",
    "tourism" : "alpine_hut"
  },
  "nodes" : null,
  "members" : null
}, {
  "type" : "node",
  "id" : 3649181784,
  "lat" : 41.3925662,
  "lon" : 22.1073625,
  "tags" : {
    "capacity" : "30",
    "ele" : "400",
    "name" : "Горни Дисан",
    "name:en" : "Gorni Disan",
    "operator" : " ДПС „Просек“ - Неготино",
    "tourism" : "alpine_hut"
  },
  "nodes" : null,
  "members" : null
}, {
  "type" : "node",
  "id" : 3649231445,
  "lat" : 41.9273661,
  "lon" : 21.766729,
  "tags" : {
    "capacity" : "30",
    "name" : "Дивље",
    "name:en" : "Divlje",
    "operator" : "ПОК „Кумановче“ - Скопје",
    "tourism" : "alpine_hut"
  },
  "nodes" : null,
  "members" : null
}, {
  "type" : "node",
  "id" : 3650382601,
  "lat" : 41.3495265,
  "lon" : 22.1960327,
  "tags" : {
    "capacity" : "40",
    "ele" : "600",
    "name" : "Драчевица",
    "operator" : "ПД „Просек“ - Неготино",
    "tourism" : "alpine_hut"
  },
  "nodes" : null,
  "members" : null
}, {
  "type" : "node",
  "id" : 3650680677,
  "lat" : 41.7916949,
  "lon" : 21.4236661,
  "tags" : {
    "internet_access" : "no",
    "name" : "Караџица",
    "name:en" : "Karadzhica",
    "operator" : "ПД „Драчево“ - Скопје",
    "phone" : "+389 71 522 444",
    "tourism" : "alpine_hut",
    "website" : "https://www.facebook.com/%D0%9F%D0%BB%D0%B0%D0%BD%D0%B8%D0%BD%D0%B0%D1%80%D1%81%D0%BA%D0%B8-%D0%B4%D0%BE%D0%BC-%D0%9A%D0%B0%D1%80%D0%B0%D1%9F%D0%B8%D1%86%D0%B0-Mountain-house-Karadzica-181888685230484/",
    "wikidata" : "Q12909585",
    "wikipedia" : "mk:Планинарски дом „Караџица“"
  },
  "nodes" : null,
  "members" : null
}, {
  "type" : "node",
  "id" : 3650721180,
  "lat" : 42.0163552,
  "lon" : 20.8793778,
  "tags" : {
    "capacity" : "12",
    "name" : "Љуботен",
    "name:en" : "Ljuboten",
    "operator" : "ПК „Љуботен“ - Тетово",
    "reservation" : "yes",
    "tourism" : "alpine_hut",
    "website" : "http://www.pkljuboten.org.mk/index.php?option=com_content&view=article&id=85&Itemid=59"
  },
  "nodes" : null,
  "members" : null
}, {
  "type" : "node",
  "id" : 3650751556,
  "lat" : 41.950243,
  "lon" : 21.2992157,
  "tags" : {
    "alt_name" : "Планинарски Дома Матка",
    "capacity" : "200",
    "name" : "Матка",
    "operator" : "СД „Пеони“ - Скопје",
    "tourism" : "alpine_hut",
    "wikidata" : "Q15409333"
  },
  "nodes" : null,
  "members" : null
}, {
  "type" : "node",
  "id" : 3650767204,
  "lat" : 42.2845023,
  "lon" : 21.9277519,
  "tags" : {
    "capacity" : "18",
    "name" : "Молотино",
    "operator" : "ПД „Козјак“ - Куманово",
    "tourism" : "alpine_hut"
  },
  "nodes" : null,
  "members" : null
}, {
  "type" : "node",
  "id" : 3650809063,
  "lat" : 41.5495205,
  "lon" : 21.5042671,
  "tags" : {
    "name" : "Мокрени",
    "tourism" : "alpine_hut"
  },
  "nodes" : null,
  "members" : null
}, {
  "type" : "node",
  "id" : 3664552047,
  "lat" : 41.2101825,
  "lon" : 21.9969073,
  "tags" : {
    "capacity" : "35",
    "name" : "Мрежичко",
    "operator" : " ПД „Орле“ - Кавадарци",
    "tourism" : "alpine_hut"
  },
  "nodes" : null,
  "members" : null
}, {
  "type" : "node",
  "id" : 3664575460,
  "lat" : 40.9915726,
  "lon" : 21.2813186,
  "tags" : {
    "capacity" : "48",
    "ele" : "1440",
    "int_name" : "Neolica",
    "name" : "Неолица",
    "name:en" : "Neolica",
    "operator" : " ПД „Ѓорѓи Наумов“ - Битола",
    "tourism" : "alpine_hut"
  },
  "nodes" : null,
  "members" : null
}, {
  "type" : "node",
  "id" : 3664591841,
  "lat" : 41.6416345,
  "lon" : 21.4387051,
  "tags" : {
    "capacity" : "30",
    "ele" : "1000",
    "int_name" : "Papradište",
    "name" : "Папрадиште",
    "name:en" : "Papradishte",
    "operator" : "„Green power“ - Велес",
    "tourism" : "alpine_hut",
    "wikidata" : "Q56255071"
  },
  "nodes" : null,
  "members" : null
}, {
  "type" : "node",
  "id" : 3664658438,
  "lat" : 41.6236949,
  "lon" : 22.3157246,
  "tags" : {
    "capacity" : "12",
    "name" : "Плоча",
    "operator" : " АК „Плоча“ - Радовиш.",
    "tourism" : "alpine_hut"
  },
  "nodes" : null,
  "members" : null
}, {
  "type" : "node",
  "id" : 3668341495,
  "lat" : 42.2466736,
  "lon" : 22.0031897,
  "tags" : {
    "capacity" : "22",
    "name" : "Појак Калман",
    "name:en" : "Pojak Kalman",
    "operator" : "ГПД „Козјак“ - Куманово",
    "tourism" : "alpine_hut"
  },
  "nodes" : null,
  "members" : null
}, {
  "type" : "node",
  "id" : 3668398298,
  "lat" : 40.9721849,
  "lon" : 21.6407994,
  "tags" : {
    "capacity" : "40",
    "name" : "Скочивир",
    "operator" : " ПД „18 Август“ - Скопје",
    "tourism" : "alpine_hut"
  },
  "nodes" : null,
  "members" : null
}, {
  "type" : "node",
  "id" : 3668572971,
  "lat" : 41.9748842,
  "lon" : 21.4092236,
  "tags" : {
    "name" : "Скопје 63",
    "operator" : "ПД „Скопје 63“ - Скопје",
    "tourism" : "alpine_hut"
  },
  "nodes" : null,
  "members" : null
}, {
  "type" : "node",
  "id" : 3668857493,
  "lat" : 42.0158843,
  "lon" : 20.8778624,
  "tags" : {
    "capacity" : "80",
    "name" : "Смрека",
    "name:en" : "Smreka",
    "operator" : "Д „Трансверзалец“ - Скопје",
    "tourism" : "alpine_hut"
  },
  "nodes" : null,
  "members" : null
}, {
  "type" : "node",
  "id" : 3668883558,
  "lat" : 41.09047,
  "lon" : 21.7354404,
  "tags" : {
    "alt_name" : "Медикус",
    "capacity" : "15",
    "name" : "Старавина",
    "operator" : "ПСД „Медикус“ - Битола",
    "tourism" : "alpine_hut"
  },
  "nodes" : null,
  "members" : null
}, {
  "type" : "node",
  "id" : 3669906379,
  "lat" : 41.6511623,
  "lon" : 20.877537,
  "tags" : {
    "capacity" : "40",
    "name" : "Tajmište",
    "operator" : "ПК „Работнички-Китка“ - Скопје.",
    "tourism" : "alpine_hut"
  },
  "nodes" : null,
  "members" : null
}, {
  "type" : "node",
  "id" : 3669966813,
  "lat" : 41.5816794,
  "lon" : 21.1876474,
  "tags" : {
    "int_name" : "Ursus Speleos",
    "name" : "Урсус спелеос",
    "name:en" : "Usus Speleos",
    "operator" : "ИД „Урсус спелеос“ - Скопје",
    "operator:en" : "Ursus Speleos Exploration Society",
    "tourism" : "alpine_hut",
    "website" : "https://ursusspeleos.com.mk/"
  },
  "nodes" : null,
  "members" : null
}, {
  "type" : "node",
  "id" : 3671888432,
  "lat" : 42.011214,
  "lon" : 20.8821046,
  "tags" : {
    "alt_name" : "Шара ски",
    "capacity" : "24",
    "name" : "Конак",
    "operator" : "ДПС „Шара ски“ - Тетово",
    "tourism" : "alpine_hut"
  },
  "nodes" : null,
  "members" : null
}, {
  "type" : "node",
  "id" : 3671954146,
  "lat" : 41.3562648,
  "lon" : 22.8828432,
  "tags" : {
    "capacity" : "26",
    "name" : "Шарена Чешма",
    "operator" : "ПАОК „Ентузијаст“ - Струмица",
    "tourism" : "alpine_hut"
  },
  "nodes" : null,
  "members" : null
}, {
  "type" : "node",
  "id" : 3694881124,
  "lat" : 41.975162,
  "lon" : 22.8187714,
  "tags" : {
    "historic" : "monument",
    "name" : "Dedo Jakim - Mill",
    "name:mk" : "Воденицата на Дедо Јаким"
  },
  "nodes" : null,
  "members" : null
}, {
  "type" : "node",
  "id" : 3694922580,
  "lat" : 41.9769054,
  "lon" : 22.8193451,
  "tags" : {
    "historic" : "monument",
    "name" : "Ilin Kamen",
    "name:mk" : "Илин Камен"
  },
  "nodes" : null,
  "members" : null
}, {
  "type" : "node",
  "id" : 3695208787,
  "lat" : 41.9668611,
  "lon" : 22.7768724,
  "tags" : {
    "historic" : "monument",
    "name" : "Гоце Делчев (Биста)",
    "name:en" : "Goce Delchev"
  },
  "nodes" : null,
  "members" : null
}, {
  "type" : "node",
  "id" : 3695208788,
  "lat" : 41.9643843,
  "lon" : 22.7742882,
  "tags" : {
    "historic" : "monument",
    "name" : "Гоце Делчев",
    "name:en" : "Goce Delchev"
  },
  "nodes" : null,
  "members" : null
}, {
  "type" : "node",
  "id" : 3695770497,
  "lat" : 41.9653801,
  "lon" : 22.7716387,
  "tags" : {
    "historic" : "monument",
    "name" : "Споменик на паднати борци во НОБ"
  },
  "nodes" : null,
  "members" : null
}, {
  "type" : "node",
  "id" : 3695988841,
  "lat" : 41.9664768,
  "lon" : 22.7729986,
  "tags" : {
    "name" : "Музеј на град Делчево",
    "name:en" : "City Museum",
    "tourism" : "museum"
  },
  "nodes" : null,
  "members" : null
}, {
  "type" : "node",
  "id" : 3696580046,
  "lat" : 41.9661617,
  "lon" : 22.772844,
  "tags" : {
    "historic" : "monument"
  },
  "nodes" : null,
  "members" : null
}, {
  "type" : "node",
  "id" : 3696656682,
  "lat" : 41.9425359,
  "lon" : 22.7954411,
  "tags" : {
    "historic" : "monument",
    "name" : "Кула",
    "name:en" : "Kula"
  },
  "nodes" : null,
  "members" : null
}, {
  "type" : "node",
  "id" : 3713662739,
  "lat" : 41.9952169,
  "lon" : 21.426153,
  "tags" : {
    "artwork_type" : "statue",
    "historic" : "memorial",
    "memorial" : "statue",
    "name" : "Josip Broz Tito",
    "subject:wikidata" : "Q9161",
    "tourism" : "artwork"
  },
  "nodes" : null,
  "members" : null
}, {
  "type" : "node",
  "id" : 3951819342,
  "lat" : 41.9682709,
  "lon" : 21.4313461,
  "tags" : {
    "access" : "yes",
    "alt_name" : "Чрнче",
    "alt_name:en" : "Črnče",
    "alt_name:mk" : "Чрнче",
    "ele" : "515",
    "historic" : "ruins",
    "historic:civilization" : "byzantine",
    "int_name" : "Markovi Kuli",
    "name" : "Маркови Кули",
    "name:en" : "Markovi Kuli",
    "name:mk" : "Маркови Кули",
    "source" : "survey;aerial imagery;gps",
    "wikidata" : "Q12908439",
    "wikimedia_commons" : "Category:Markovi Kuli (Skopje)",
    "wikipedia" : "mk:Маркови Кули (Водно)"
  },
  "nodes" : null,
  "members" : null
}, {
  "type" : "node",
  "id" : 4078676807,
  "lat" : 41.139367,
  "lon" : 22.5093733,
  "tags" : {
    "historic" : "monument",
    "name" : "Леонид Јанков"
  },
  "nodes" : null,
  "members" : null
}, {
  "type" : "node",
  "id" : 4095417830,
  "lat" : 40.8536596,
  "lon" : 21.1211491,
  "tags" : {
    "ele" : "872",
    "historic" : "boundary_stone",
    "name" : "Г177",
    "natural" : "peak"
  },
  "nodes" : null,
  "members" : null
}, {
  "type" : "node",
  "id" : 4095421689,
  "lat" : 40.8545802,
  "lon" : 21.1255774,
  "tags" : {
    "historic" : "boundary_stone",
    "name" : "Г176"
  },
  "nodes" : null,
  "members" : null
}, {
  "type" : "node",
  "id" : 4095429583,
  "lat" : 40.8554344,
  "lon" : 21.1306578,
  "tags" : {
    "historic" : "boundary_stone",
    "name" : "Г175-2"
  },
  "nodes" : null,
  "members" : null
}, {
  "type" : "node",
  "id" : 4095438268,
  "lat" : 40.854785,
  "lon" : 21.1326005,
  "tags" : {
    "historic" : "boundary_stone",
    "name" : "Г175-1"
  },
  "nodes" : null,
  "members" : null
}, {
  "type" : "node",
  "id" : 4128156209,
  "lat" : 41.9977079,
  "lon" : 21.4339766,
  "tags" : {
    "artwork_type" : "statue",
    "historic" : "memorial",
    "inscription" : "Св. Кирил и Методиј",
    "int_name" : "Sv. Kiril i Metodi",
    "memorial" : "statue",
    "name" : "Св. Кирил и Методиј",
    "name:de" : "Kyrill und Method",
    "name:en" : "Saints Cyril and Methodius",
    "subject:wikidata" : "Q239925",
    "subject:wikipedia" : "mk:Св. Кирил и Методиј",
    "tourism" : "artwork"
  },
  "nodes" : null,
  "members" : null
}, {
  "type" : "node",
  "id" : 4128156210,
  "lat" : 41.9975624,
  "lon" : 21.4341509,
  "tags" : {
    "artwork_type" : "statue",
    "historic" : "memorial",
    "inscription" : "Св. Климент Охридски и Наум Охридски Чудотворец",
    "memorial" : "statue",
    "name" : "Св. Климент Охридски и Наум Охридски Чудотворец",
    "name:en" : "Saints Clement of Ohrid and Naum",
    "tourism" : "artwork",
    "wikipedia" : "mk:Свети Климент Охридски;mk:Свети Наум Охридски Чудотворец"
  },
  "nodes" : null,
  "members" : null
}, {
  "type" : "node",
  "id" : 4149143991,
  "lat" : 41.9953917,
  "lon" : 21.4313414,
  "tags" : {
    "addr:postcode" : "1000",
    "artist_name" : "Димитар Филиповски",
    "artwork_type" : "statue",
    "historic" : "memorial",
    "inscription" : "Цар Самоил",
    "memorial" : "statue",
    "name" : "Цар Самоил",
    "name:de" : "Zar Samuil",
    "name:en" : "Tsar Samuel",
    "start_date" : "28.06.2011",
    "tourism" : "artwork",
    "wikidata" : "Q12910631",
    "wikimedia_commons" : "Category:Samuel's Monument (Skopje)",
    "wikipedia" : "mk:Споменик на Цар Самоил (Скопје)"
  },
  "nodes" : null,
  "members" : null
}, {
  "type" : "node",
  "id" : 4154122109,
  "lat" : 41.2251669,
  "lon" : 21.4329692,
  "tags" : {
    "historic" : "monument"
  },
  "nodes" : null,
  "members" : null
}, {
  "type" : "node",
  "id" : 4154122110,
  "lat" : 41.2257975,
  "lon" : 21.4316498,
  "tags" : {
    "artwork_type" : "bust",
    "material" : "marble",
    "name" : "Круме Волнароски-Коља",
    "name:en" : "Krume Volnaroski-Kolja",
    "tourism" : "artwork"
  },
  "nodes" : null,
  "members" : null
}, {
  "type" : "node",
  "id" : 4161113452,
  "lat" : 41.9964949,
  "lon" : 21.4321474,
  "tags" : {
    "artwork_type" : "statue",
    "historic" : "memorial",
    "inscription" : "Даме Груев",
    "memorial" : "statue",
    "name" : "Даме Груев",
    "name:de" : "Dame Gruew",
    "name:en" : "Dame Gruev",
    "name:fr" : "Damé Grouev",
    "name:mk" : "Даме Груев",
    "name:sr" : "Даме Груев",
    "subject:wikidata" : "Q983917",
    "subject:wikipedia" : "mk:Даме Груев",
    "tourism" : "artwork"
  },
  "nodes" : null,
  "members" : null
}, {
  "type" : "node",
  "id" : 4161113453,
  "lat" : 41.9968799,
  "lon" : 21.4323054,
  "tags" : {
    "artist_name" : "Роза Павлеска",
    "artwork_type" : "statue",
    "historic" : "memorial",
    "inscription" : "Јустинијан I",
    "int_name" : "Justinian I.",
    "memorial" : "statue",
    "name" : "Јустинијан I",
    "name:de" : "Justinian I.",
    "name:en" : "Justinian I",
    "name:fr" : "Justinien Ier",
    "name:grc" : "Ἰουστινιανός Α'",
    "start_date" : "16.06.2011",
    "tourism" : "artwork",
    "wikidata" : "Q12910626",
    "wikimedia_commons" : "Category:Monument of Iustinianus I (Skopje)",
    "wikipedia" : "mk:Споменик на Јустинијан I"
  },
  "nodes" : null,
  "members" : null
}, {
  "type" : "node",
  "id" : 4161249330,
  "lat" : 41.9979046,
  "lon" : 21.4344182,
  "tags" : {
    "artwork_type" : "statue",
    "historic" : "memorial",
    "inscription" : "Олимпија",
    "memorial" : "statue",
    "name" : "Олимпија",
    "name:de" : "Olympias von Epirus",
    "name:en" : "Olympias",
    "subject:wikidata" : "Q223134",
    "subject:wikipedia" : "mk:Олимпија",
    "tourism" : "artwork"
  },
  "nodes" : null,
  "members" : null
}, {
  "type" : "node",
  "id" : 4180539742,
  "lat" : 41.1143378,
  "lon" : 20.7952385,
  "tags" : {
    "int_name" : "Icon Gallery",
    "name" : "Галерија на икони",
    "name:en" : "Icon Gallery",
    "name:fr" : "Pinacothèque des icônes d’Ohrid",
    "name:pl" : "Wystawa Ikon",
    "opening_hours" : "Tu-Su 09:00-14:00",
    "tourism" : "gallery"
  },
  "nodes" : null,
  "members" : null
}, {
  "type" : "node",
  "id" : 4183631289,
  "lat" : 41.993303,
  "lon" : 21.4337226,
  "tags" : {
    "historic" : "monument",
    "name" : "Прометеј",
    "name:en" : "Prometheus",
    "name:tr" : "Prometheus"
  },
  "nodes" : null,
  "members" : null
}, {
  "type" : "node",
  "id" : 4183704885,
  "lat" : 41.9760971,
  "lon" : 21.4116211,
  "tags" : {
    "historic" : "ruins"
  },
  "nodes" : null,
  "members" : null
}, {
  "type" : "node",
  "id" : 4242928035,
  "lat" : 41.9834333,
  "lon" : 21.439106,
  "tags" : {
    "historic" : "monument",
    "name" : "Тодор Александров"
  },
  "nodes" : null,
  "members" : null
}, {
  "type" : "node",
  "id" : 4258672490,
  "lat" : 41.0225732,
  "lon" : 21.3127892,
  "tags" : {
    "name" : "elena",
    "tourism" : "artwork"
  },
  "nodes" : null,
  "members" : null
}, {
  "type" : "node",
  "id" : 4266031693,
  "lat" : 41.986749,
  "lon" : 21.4369668,
  "tags" : {
    "historic" : "monument",
    "name" : "Стара Рампа"
  },
  "nodes" : null,
  "members" : null
}, {
  "type" : "node",
  "id" : 4278022934,
  "lat" : 41.4166941,
  "lon" : 22.7549207,
  "tags" : {
    "historic" : "monument",
    "name" : "Гоце Делчев"
  },
  "nodes" : null,
  "members" : null
}, {
  "type" : "node",
  "id" : 4306447780,
  "lat" : 41.3661079,
  "lon" : 21.6749495,
  "tags" : {
    "historic" : "memorial",
    "memorial" : "war_memorial",
    "name" : "Борка Талески-Модерното / Лазо Филиповски-Лавски",
    "name:en" : "Borka Taleski / Lazo Filipovski"
  },
  "nodes" : null,
  "members" : null
}, {
  "type" : "node",
  "id" : 4351691820,
  "lat" : 40.9142149,
  "lon" : 20.7412554,
  "tags" : {
    "historic" : "memorial",
    "memorial" : "statue",
    "name" : "Свети Наум",
    "name:mk" : "Свети Наум",
    "name:ru" : "Святой Наум",
    "name:sq" : "Shën Naumi"
  },
  "nodes" : null,
  "members" : null
}, {
  "type" : "node",
  "id" : 4357104593,
  "lat" : 41.7364573,
  "lon" : 22.1901029,
  "tags" : {
    "historic" : "monument"
  },
  "nodes" : null,
  "members" : null
}, {
  "type" : "node",
  "id" : 4357166289,
  "lat" : 41.736405,
  "lon" : 22.1903758,
  "tags" : {
    "historic" : "monument",
    "name" : "Споменик на загинатите евреи"
  },
  "nodes" : null,
  "members" : null
}, {
  "type" : "node",
  "id" : 4365876494,
  "lat" : 42.000853,
  "lon" : 21.4375046,
  "tags" : {
    "historic" : "monument",
    "int_name" : "Murat Paşa Camii",
    "name" : "Мустафа-пашина џамија",
    "name:en" : "Murat Pasha Mosque",
    "name:tr" : "Murat Paşa Camii"
  },
  "nodes" : null,
  "members" : null
}, {
  "type" : "node",
  "id" : 4378846992,
  "lat" : 41.9130467,
  "lon" : 21.4333848,
  "tags" : {
    "addr:street" : "Varvara",
    "historic" : "castle",
    "name" : "Vila Varvarka",
    "name:en" : "Vila Varvarka",
    "name:mk" : "Vila Varvarka",
    "phone" : "+38975225868"
  },
  "nodes" : null,
  "members" : null
}, {
  "type" : "node",
  "id" : 4380846206,
  "lat" : 41.9949279,
  "lon" : 21.4108745,
  "tags" : {
    "historic" : "monument",
    "name" : "Споменик на Јуриј Гагарин",
    "name:en" : "Yuri Gagarin Monument"
  },
  "nodes" : null,
  "members" : null
}, {
  "type" : "node",
  "id" : 4385116690,
  "lat" : 41.1423882,
  "lon" : 20.7564797,
  "tags" : {
    "name:cs" : "Free camping",
    "name:nl" : "Camp Andon Dukov",
    "tourism" : "camp_site"
  },
  "nodes" : null,
  "members" : null
}, {
  "type" : "node",
  "id" : 4386764089,
  "lat" : 41.9930188,
  "lon" : 21.4332009,
  "tags" : {
    "historic" : "monument",
    "name" : "Никола Карев"
  },
  "nodes" : null,
  "members" : null
}, {
  "type" : "node",
  "id" : 4411019689,
  "lat" : 41.1791166,
  "lon" : 22.7269756,
  "tags" : {
    "tourism" : "camp_site"
  },
  "nodes" : null,
  "members" : null
}, {
  "type" : "node",
  "id" : 4411126494,
  "lat" : 41.0302025,
  "lon" : 21.3347596,
  "tags" : {
    "artwork_type" : "statue",
    "name" : "Статуа Филип II",
    "name:en" : "Philip II Statue",
    "name:mk" : "Filip Vtori Statua",
    "tourism" : "artwork"
  },
  "nodes" : null,
  "members" : null
}, {
  "type" : "node",
  "id" : 4435035191,
  "lat" : 41.1606721,
  "lon" : 20.6503978,
  "tags" : {
    "addr:postcode" : "6330",
    "addr:street" : "Kalista",
    "email" : "campingsunrise.eu@gmail.com",
    "internet_access" : "wlan",
    "name" : "Sunrise",
    "opening_hours" : "24/7",
    "operator" : "Dutch Alliance",
    "phone" : "+38972586966",
    "tourism" : "camp_site",
    "website" : "https://www.campingsunrise.eu/"
  },
  "nodes" : null,
  "members" : null
}, {
  "type" : "node",
  "id" : 4440746389,
  "lat" : 41.9930933,
  "lon" : 21.4298952,
  "tags" : {
    "artwork_type" : "statue",
    "name" : "Wall Street Bull",
    "name:de" : "Bronzedenkmal des Großen Bullen",
    "name:en" : "Wall Street Bull",
    "source" : "survey",
    "tourism" : "artwork"
  },
  "nodes" : null,
  "members" : null
}, {
  "type" : "node",
  "id" : 4477202789,
  "lat" : 42.0016804,
  "lon" : 21.4283664,
  "tags" : {
    "historic" : "monument",
    "name" : "Вера Јоциќ",
    "name:en" : "Vera Jocik",
    "name:mk" : "Вера Јоциќ"
  },
  "nodes" : null,
  "members" : null
}, {
  "type" : "node",
  "id" : 4489443488,
  "lat" : 41.5227668,
  "lon" : 20.5275107,
  "tags" : {
    "historic" : "monument"
  },
  "nodes" : null,
  "members" : null
}, {
  "type" : "node",
  "id" : 4575831104,
  "lat" : 41.3455416,
  "lon" : 21.5532375,
  "tags" : {
    "access" : "yes",
    "historic" : "monument",
    "monument" : "statue",
    "name" : "Марко Мрњавчевиќ",
    "name:en" : "Marko Mrnjavchevikj",
    "name:mk" : "Марко Мрњавчевиќ"
  },
  "nodes" : null,
  "members" : null
}, {
  "type" : "node",
  "id" : 4575841428,
  "lat" : 41.3450704,
  "lon" : 21.5505634,
  "tags" : {
    "historic" : "monument",
    "name" : "Круме Кепески"
  },
  "nodes" : null,
  "members" : null
}, {
  "type" : "node",
  "id" : 4575841429,
  "lat" : 41.3451329,
  "lon" : 21.5506707,
  "tags" : {
    "historic" : "monument",
    "name" : "Блаже Конески"
  },
  "nodes" : null,
  "members" : null
}, {
  "type" : "node",
  "id" : 4575841430,
  "lat" : 41.3451792,
  "lon" : 21.5505581,
  "tags" : {
    "historic" : "monument",
    "name" : "Марко Цепенков"
  },
  "nodes" : null,
  "members" : null
}, {
  "type" : "node",
  "id" : 4589777068,
  "lat" : 42.3110963,
  "lon" : 22.3602199,
  "tags" : {
    "boundary" : "marker",
    "ele" : "1337",
    "historic" : "boundary_stone",
    "marker" : "stone",
    "name" : "Шуплив Камен",
    "name:sr" : "Шупаљ камак",
    "name:sr-Latn" : "Šupalj kamak",
    "natural" : "peak",
    "ref" : "106"
  },
  "nodes" : null,
  "members" : null
}, {
  "type" : "node",
  "id" : 4601421926,
  "lat" : 41.3413087,
  "lon" : 22.9282524,
  "tags" : {
    "boundary" : "marker",
    "historic" : "boundary_stone",
    "marker" : "stone",
    "name" : "1a"
  },
  "nodes" : null,
  "members" : null
}, {
  "type" : "node",
  "id" : 4680927493,
  "lat" : 41.1150795,
  "lon" : 20.8002326,
  "tags" : {
    "name" : "Atelje Farmakovski",
    "name:en" : "Atelje Farmakovski",
    "name:mk" : "Atelje Farmakovski",
    "tourism" : "artwork"
  },
  "nodes" : null,
  "members" : null
}, {
  "type" : "node",
  "id" : 4745413067,
  "lat" : 41.2788101,
  "lon" : 20.7836677,
  "tags" : {
    "historic" : "memorial",
    "name" : "Ботун"
  },
  "nodes" : null,
  "members" : null
}, {
  "type" : "node",
  "id" : 4751492691,
  "lat" : 41.158263,
  "lon" : 22.5006786,
  "tags" : {
    "artist:wikidata" : "Q1090724",
    "historic" : "monument",
    "name" : "Споменик на слободата",
    "name:en" : "Monument of freedom",
    "ruins" : "yes",
    "start_date" : "1969"
  },
  "nodes" : null,
  "members" : null
}, {
  "type" : "node",
  "id" : 4866361421,
  "lat" : 41.9409362,
  "lon" : 21.3835348,
  "tags" : {
    "tourism" : "camp_site"
  },
  "nodes" : null,
  "members" : null
}, {
  "type" : "node",
  "id" : 4895300521,
  "lat" : 42.0048505,
  "lon" : 21.4368762,
  "tags" : {
    "historic" : "monument",
    "name:en" : "Haji Balaban Masjid",
    "name:tr" : "Hacı Balaban Camii"
  },
  "nodes" : null,
  "members" : null
}, {
  "type" : "node",
  "id" : 4907386415,
  "lat" : 41.3738524,
  "lon" : 21.5025867,
  "tags" : {
    "historic" : "monument",
    "name" : "Борецот"
  },
  "nodes" : null,
  "members" : null
}, {
  "type" : "node",
  "id" : 4907494222,
  "lat" : 41.3983937,
  "lon" : 21.5642947,
  "tags" : {
    "historic" : "monument"
  },
  "nodes" : null,
  "members" : null
}, {
  "type" : "node",
  "id" : 4907621922,
  "lat" : 41.973041,
  "lon" : 22.7799224,
  "tags" : {
    "name" : "Твив арт",
    "name:en" : "Tviv art",
    "name:mk" : "Твив арт",
    "tourism" : "artwork"
  },
  "nodes" : null,
  "members" : null
}, {
  "type" : "node",
  "id" : 4913622015,
  "lat" : 41.7430936,
  "lon" : 20.6763098,
  "tags" : {
    "denomination" : "orthodox",
    "historic" : "wayside_shrine",
    "religion" : "christian"
  },
  "nodes" : null,
  "members" : null
}, {
  "type" : "node",
  "id" : 4948953621,
  "lat" : 41.1257626,
  "lon" : 20.6409894,
  "tags" : {
    "name:en" : "Camping Livadista",
    "tourism" : "caravan_site"
  },
  "nodes" : null,
  "members" : null
}, {
  "type" : "node",
  "id" : 4966569722,
  "lat" : 41.1220279,
  "lon" : 20.7708293,
  "tags" : {
    "name" : "Scout Camp",
    "tourism" : "camp_site"
  },
  "nodes" : null,
  "members" : null
}, {
  "type" : "node",
  "id" : 4972835907,
  "lat" : 41.1736526,
  "lon" : 20.6783749,
  "tags" : {
    "historic" : "monument",
    "name" : "Сергеј Есенин"
  },
  "nodes" : null,
  "members" : null
}, {
  "type" : "node",
  "id" : 4972836074,
  "lat" : 41.1735946,
  "lon" : 20.6783982,
  "tags" : {
    "artwork_type" : "bust",
    "inscription" : "Славко Јаневски",
    "name" : "Славко Јаневски",
    "tourism" : "artwork"
  },
  "nodes" : null,
  "members" : null
}, {
  "type" : "node",
  "id" : 4990143932,
  "lat" : 42.100161,
  "lon" : 21.4618917,
  "tags" : {
    "name" : "Vila Kum",
    "name:mk" : "Vila Kum",
    "tourism" : "chalet"
  },
  "nodes" : null,
  "members" : null
}, {
  "type" : "node",
  "id" : 5022258023,
  "lat" : 42.0428397,
  "lon" : 21.4110404,
  "tags" : {
    "tourism" : "artwork"
  },
  "nodes" : null,
  "members" : null
}, {
  "type" : "node",
  "id" : 5055432426,
  "lat" : 42.0768838,
  "lon" : 22.1826261,
  "tags" : {
    "historic" : "monument",
    "int_name" : "Ksteva Kula",
    "name" : "Крстева кула",
    "name:en" : "Krste's Tower",
    "name:mk" : "Крстева кула"
  },
  "nodes" : null,
  "members" : null
}, {
  "type" : "node",
  "id" : 5055444424,
  "lat" : 41.1949939,
  "lon" : 22.6878453,
  "tags" : {
    "historic" : "monument",
    "name" : "Споменик „Солунски фронт“ од I светска војна",
    "name:en" : "World War I Salonica Front memorial",
    "name:nl" : "World War I Salonica Front monument"
  },
  "nodes" : null,
  "members" : null
}, {
  "type" : "node",
  "id" : 5055444426,
  "lat" : 42.0768628,
  "lon" : 22.1822635,
  "tags" : {
    "historic" : "monument",
    "int_name" : "Hadži Kostova Kula",
    "name" : "Хаџикостова кула",
    "name:en" : "Hadji Kostov Tower"
  },
  "nodes" : null,
  "members" : null
}, {
  "type" : "node",
  "id" : 5055455123,
  "lat" : 42.0792053,
  "lon" : 22.1818109,
  "tags" : {
    "historic" : "monument",
    "int_name" : "Saat Kula",
    "name" : "Саат-кула",
    "name:en" : "Clock Tower"
  },
  "nodes" : null,
  "members" : null
}, {
  "type" : "node",
  "id" : 5055455125,
  "lat" : 42.0788289,
  "lon" : 22.1809805,
  "tags" : {
    "historic" : "monument",
    "int_name" : "Zlatkovičeva Kula",
    "name" : "Златковичева кула",
    "name:en" : "Zlatkovich Tower"
  },
  "nodes" : null,
  "members" : null
}, {
  "type" : "node",
  "id" : 5055455126,
  "lat" : 42.0786957,
  "lon" : 22.1794714,
  "tags" : {
    "historic" : "monument",
    "int_name" : "Simiḱeva Kula",
    "name" : "Симиќева кула",
    "name:en" : "Simikj Tower"
  },
  "nodes" : null,
  "members" : null
}, {
  "type" : "node",
  "id" : 5098505521,
  "lat" : 41.4409796,
  "lon" : 22.6796979,
  "tags" : {
    "historic" : "monument",
    "name" : "Струмица-Кристал-64"
  },
  "nodes" : null,
  "members" : null
}, {
  "type" : "node",
  "id" : 5115436809,
  "lat" : 41.1142035,
  "lon" : 20.7958058,
  "tags" : {
    "historic" : "tomb",
    "name" : "Григор Прличев",
    "name:en" : "Grigor Prlicev grave"
  },
  "nodes" : null,
  "members" : null
}, {
  "type" : "node",
  "id" : 5253858494,
  "lat" : 41.3384543,
  "lon" : 22.9275511,
  "tags" : {
    "boundary" : "marker",
    "ele" : "1880.5",
    "historic" : "boundary_stone",
    "int_name" : "Tumba",
    "marker" : "stone",
    "name" : "Тумба / Τούμπα",
    "name:bg" : "Тумба",
    "name:el" : "Τούμπα",
    "name:en" : "Tumba",
    "name:mk" : "Тумба",
    "natural" : "peak",
    "ref:Bulgaria" : "1",
    "wikidata" : "Q2458111",
    "wikipedia" : "mk:Тумба (врв)"
  },
  "nodes" : null,
  "members" : null
}, {
  "type" : "node",
  "id" : 5308964579,
  "lat" : 41.9765397,
  "lon" : 22.8213367,
  "tags" : {
    "historic" : "wayside_cross"
  },
  "nodes" : null,
  "members" : null
}, {
  "type" : "node",
  "id" : 5317046322,
  "lat" : 42.0229063,
  "lon" : 21.4188415,
  "tags" : {
    "historic" : "memorial"
  },
  "nodes" : null,
  "members" : null
}, {
  "type" : "node",
  "id" : 5320063221,
  "lat" : 41.1142097,
  "lon" : 20.7934484,
  "tags" : {
    "historic" : "memorial"
  },
  "nodes" : null,
  "members" : null
}, {
  "type" : "node",
  "id" : 5324070425,
  "lat" : 42.0017162,
  "lon" : 21.4213151,
  "tags" : {
    "name" : "Staute",
    "tourism" : "artwork"
  },
  "nodes" : null,
  "members" : null
}, {
  "type" : "node",
  "id" : 5345636487,
  "lat" : 42.0053056,
  "lon" : 21.4223506,
  "tags" : {
    "name" : "Школка",
    "name:en" : "Shell",
    "tourism" : "artwork"
  },
  "nodes" : null,
  "members" : null
}, {
  "type" : "node",
  "id" : 5392547422,
  "lat" : 42.010912,
  "lon" : 21.3796723,
  "tags" : {
    "name" : "Дамчевски",
    "name:en" : "Damchevski",
    "tourism" : "artwork"
  },
  "nodes" : null,
  "members" : null
}, {
  "type" : "node",
  "id" : 5503460521,
  "lat" : 41.9943791,
  "lon" : 21.418471,
  "tags" : {
    "tourism" : "artwork"
  },
  "nodes" : null,
  "members" : null
}, {
  "type" : "node",
  "id" : 5541143272,
  "lat" : 41.8845661,
  "lon" : 22.5039935,
  "tags" : {
    "historic" : "memorial",
    "memorial" : "yes",
    "name" : "Теракота"
  },
  "nodes" : null,
  "members" : null
}, {
  "type" : "node",
  "id" : 5551392390,
  "lat" : 41.1745272,
  "lon" : 20.6778868,
  "tags" : {
    "historic" : "memorial",
    "memorial" : "bust",
    "name" : "Никола Кукунешоски - Дунѓерски",
    "name:en" : "Nikola Kukuneshoski - Dungjerski"
  },
  "nodes" : null,
  "members" : null
}, {
  "type" : "node",
  "id" : 5551392391,
  "lat" : 41.1747311,
  "lon" : 20.6779485,
  "tags" : {
    "historic" : "memorial",
    "memorial" : "bust",
    "name" : "Крсте Јовановски"
  },
  "nodes" : null,
  "members" : null
}, {
  "type" : "node",
  "id" : 5551392392,
  "lat" : 41.1749451,
  "lon" : 20.6779833,
  "tags" : {
    "historic" : "memorial",
    "memorial" : "bust",
    "name" : "Димче Кошаркоски"
  },
  "nodes" : null,
  "members" : null
}, {
  "type" : "node",
  "id" : 5551410938,
  "lat" : 41.1756537,
  "lon" : 20.6782194,
  "tags" : {
    "historic" : "memorial",
    "memorial" : "bust",
    "name" : "Боро Шаин"
  },
  "nodes" : null,
  "members" : null
}, {
  "type" : "node",
  "id" : 5551410939,
  "lat" : 41.1755185,
  "lon" : 20.6781791,
  "tags" : {
    "historic" : "memorial",
    "memorial" : "bust",
    "name" : "Јово Стефановски - Риле"
  },
  "nodes" : null,
  "members" : null
}, {
  "type" : "node",
  "id" : 5551410940,
  "lat" : 41.1753893,
  "lon" : 20.6781416,
  "tags" : {
    "historic" : "memorial",
    "memorial" : "bust",
    "name" : "Разме Малески"
  },
  "nodes" : null,
  "members" : null
}, {
  "type" : "node",
  "id" : 5551410941,
  "lat" : 41.1752843,
  "lon" : 20.6781067,
  "tags" : {
    "historic" : "memorial",
    "memorial" : "bust",
    "name" : "Петре Гончески - Гиле"
  },
  "nodes" : null,
  "members" : null
}, {
  "type" : "node",
  "id" : 5596272451,
  "lat" : 41.05924,
  "lon" : 20.8033957,
  "tags" : {
    "amenity" : "church",
    "historic" : "wayside_shrine",
    "name" : "Св. Благовештение"
  },
  "nodes" : null,
  "members" : null
}, {
  "type" : "node",
  "id" : 5601885725,
  "lat" : 41.0000561,
  "lon" : 20.8036513,
  "tags" : {
    "historic" : "memorial"
  },
  "nodes" : null,
  "members" : null
}, {
  "type" : "node",
  "id" : 5670080623,
  "lat" : 41.1512525,
  "lon" : 20.6512326,
  "tags" : {
    "addr:postcode" : "6330",
    "addr:street" : "Kalista",
    "email" : "emitanaskoska@gmail.com",
    "internet_access" : "wlan",
    "name" : "Camping Lakeside",
    "opening_hours" : "24/7",
    "operator" : "Emilija Tanaskoska",
    "phone" : "+38978271491",
    "tourism" : "camp_site",
    "website" : "https://www.facebook.com/lakeside.mk/"
  },
  "nodes" : null,
  "members" : null
}, {
  "type" : "node",
  "id" : 5699016423,
  "lat" : 41.0240503,
  "lon" : 21.0506131,
  "tags" : {
    "name" : "Eтнолошки музеј",
    "name:en" : "Ethnographic museum",
    "tourism" : "museum"
  },
  "nodes" : null,
  "members" : null
}, {
  "type" : "node",
  "id" : 5711419372,
  "lat" : 41.9963577,
  "lon" : 21.4323793,
  "tags" : {
    "artwork_type" : "statue",
    "historic" : "memorial",
    "memorial" : "statue",
    "name" : "Гоце Делчев",
    "name:de" : "Goze Deltschew",
    "name:en" : "Goce Delchev",
    "name:fr" : "Gotsé Deltchev",
    "name:mk" : "Гоце Делчев",
    "name:sr" : "Гоце Делчев",
    "tourism" : "artwork"
  },
  "nodes" : null,
  "members" : null
}, {
  "type" : "node",
  "id" : 5722266446,
  "lat" : 42.1003011,
  "lon" : 21.9665342,
  "tags" : {
    "historic" : "archaeological_site",
    "historic:civilization" : "ancient_roman",
    "name" : "Konjuh"
  },
  "nodes" : null,
  "members" : null
}, {
  "type" : "node",
  "id" : 5724919828,
  "lat" : 42.0949995,
  "lon" : 21.9658672,
  "tags" : {
    "historic" : "ruins",
    "historic:civilization" : "ancient_roman",
    "name" : "Rotonda Konjuh"
  },
  "nodes" : null,
  "members" : null
}, {
  "type" : "node",
  "id" : 5724929432,
  "lat" : 42.0995746,
  "lon" : 21.9606298,
  "tags" : {
    "historic" : "wayside_shrine",
    "name" : "Bosko Chapel"
  },
  "nodes" : null,
  "members" : null
}, {
  "type" : "node",
  "id" : 5725072268,
  "lat" : 41.7376603,
  "lon" : 22.1863555,
  "tags" : {
    "historic" : "archaeological_site",
    "historic:civilization" : "medieval"
  },
  "nodes" : null,
  "members" : null
}, {
  "type" : "node",
  "id" : 5725139643,
  "lat" : 41.7995125,
  "lon" : 22.289829,
  "tags" : {
    "historic" : "archaeological_site",
    "historic:civilization" : "ancient_roman",
    "name" : "Bargala"
  },
  "nodes" : null,
  "members" : null
}, {
  "type" : "node",
  "id" : 5729150992,
  "lat" : 41.3826711,
  "lon" : 22.7536848,
  "tags" : {
    "historic" : "ruins",
    "historic:civilization" : "ottoman",
    "inscription" : "Hamam"
  },
  "nodes" : null,
  "members" : null
}, {
  "type" : "node",
  "id" : 5729742420,
  "lat" : 41.7779241,
  "lon" : 22.8625358,
  "tags" : {
    "historic" : "archaeological_site"
  },
  "nodes" : null,
  "members" : null
}, {
  "type" : "node",
  "id" : 5729916159,
  "lat" : 41.8484714,
  "lon" : 22.4180157,
  "tags" : {
    "historic" : "archaeological_site"
  },
  "nodes" : null,
  "members" : null
}, {
  "type" : "node",
  "id" : 5810247764,
  "lat" : 41.7093532,
  "lon" : 20.687885,
  "tags" : {
    "name" : "Trnica",
    "tourism" : "camp_site"
  },
  "nodes" : null,
  "members" : null
}, {
  "type" : "node",
  "id" : 5812672954,
  "lat" : 42.0169571,
  "lon" : 21.4434502,
  "tags" : {
    "historic" : "monument",
    "name" : "Doma",
    "name:tr" : "Evim"
  },
  "nodes" : null,
  "members" : null
}, {
  "type" : "node",
  "id" : 5833918548,
  "lat" : 41.5939237,
  "lon" : 20.652723,
  "tags" : {
    "name" : "Museum of Galichnik's cultural heritage",
    "tourism" : "museum"
  },
  "nodes" : null,
  "members" : null
}, {
  "type" : "node",
  "id" : 5841674945,
  "lat" : 41.9963717,
  "lon" : 21.4339472,
  "tags" : {
    "historic" : "memorial",
    "memorial" : "statue",
    "name:en" : "The Bridge of Civilizations in Macedonia"
  },
  "nodes" : null,
  "members" : null
}, {
  "type" : "node",
  "id" : 5841719696,
  "lat" : 42.0011065,
  "lon" : 21.4344426,
  "tags" : {
    "historic" : "memorial",
    "memorial" : "cannon"
  },
  "nodes" : null,
  "members" : null
}, {
  "type" : "node",
  "id" : 5846663486,
  "lat" : 41.0239386,
  "lon" : 20.8255665,
  "tags" : {
    "historic" : "memorial",
    "name:en" : "chapel",
    "name:pl" : "kaplica"
  },
  "nodes" : null,
  "members" : null
}, {
  "type" : "node",
  "id" : 5901740885,
  "lat" : 41.9952759,
  "lon" : 21.4319995,
  "tags" : {
    "addr:city" : "Skopje",
    "addr:postcode" : "1000",
    "historic" : "memorial",
    "name" : "Спомен плоча на Мајка Тереза",
    "name:de" : "Geburtsort von Mutter Teresa",
    "name:en" : "Mother Teresa Old House Place",
    "source" : "survey"
  },
  "nodes" : null,
  "members" : null
}, {
  "type" : "node",
  "id" : 5926438456,
  "lat" : 41.1057278,
  "lon" : 20.8078335,
  "tags" : {
    "historic" : "memorial",
    "int_name" : "Aard den Dolaard",
    "memorial" : "plaque",
    "name" : "Ард ден Долард",
    "name:en" : "Aard den Dolaard",
    "name:nl" : "Aard den Dolaard"
  },
  "nodes" : null,
  "members" : null
}, {
  "type" : "node",
  "id" : 5932385385,
  "lat" : 41.958616,
  "lon" : 21.4422187,
  "tags" : {
    "addr:housenumber" : "292 А",
    "addr:postcode" : "1000",
    "addr:street" : "Христо Татарчев",
    "email" : "aleksglavinov@gmail.com",
    "historic" : "castle",
    "name" : "Резиденцијата Главинов",
    "name:en" : "Residence Glavinov",
    "name:mk" : "Резиденција Главинов",
    "opening_hours" : "24/7",
    "phone" : "+38970403406"
  },
  "nodes" : null,
  "members" : null
}, {
  "type" : "node",
  "id" : 5996037201,
  "lat" : 41.1513926,
  "lon" : 20.6512019,
  "tags" : {
    "name" : "Camping Lakeside",
    "tourism" : "camp_site"
  },
  "nodes" : null,
  "members" : null
}, {
  "type" : "node",
  "id" : 6054035627,
  "lat" : 41.9953188,
  "lon" : 21.4274744,
  "tags" : {
    "historic" : "memorial"
  },
  "nodes" : null,
  "members" : null
}, {
  "type" : "node",
  "id" : 6054036213,
  "lat" : 41.9996011,
  "lon" : 21.4195079,
  "tags" : {
    "historic" : "memorial"
  },
  "nodes" : null,
  "members" : null
}, {
  "type" : "node",
  "id" : 6054048485,
  "lat" : 41.9957136,
  "lon" : 21.4306041,
  "tags" : {
    "historic" : "memorial",
    "int_name" : "Metodija Andonov - Čento Momument",
    "memorial" : "statue",
    "name" : "Методија Андонов - Ченто"
  },
  "nodes" : null,
  "members" : null
}, {
  "type" : "node",
  "id" : 6054048488,
  "lat" : 41.9954634,
  "lon" : 21.4268586,
  "tags" : {
    "artwork_type" : "sculpture",
    "tourism" : "artwork"
  },
  "nodes" : null,
  "members" : null
}, {
  "type" : "node",
  "id" : 6054048494,
  "lat" : 41.9950349,
  "lon" : 21.4293515,
  "tags" : {
    "artwork_type" : "statue",
    "memorial" : "statue",
    "name" : "Споменик на Христо Узунов",
    "name:en" : "Statue of Hristo Uzunov",
    "source" : "survey",
    "tourism" : "artwork"
  },
  "nodes" : null,
  "members" : null
}, {
  "type" : "node",
  "id" : 6054049798,
  "lat" : 42.0072121,
  "lon" : 21.3655391,
  "tags" : {
    "historic" : "memorial"
  },
  "nodes" : null,
  "members" : null
}, {
  "type" : "node",
  "id" : 6054049805,
  "lat" : 41.9959384,
  "lon" : 21.4331831,
  "tags" : {
    "historic" : "memorial",
    "memorial" : "statue"
  },
  "nodes" : null,
  "members" : null
}, {
  "type" : "node",
  "id" : 6102488862,
  "lat" : 41.9941112,
  "lon" : 21.4340211,
  "tags" : {
    "artwork_type" : "streetart",
    "name" : "Градот убав",
    "name:en" : "Street Art & Graffiti Gallery",
    "tourism" : "artwork"
  },
  "nodes" : null,
  "members" : null
}, {
  "type" : "node",
  "id" : 6136130985,
  "lat" : 41.9974433,
  "lon" : 20.9681527,
  "tags" : {
    "historic" : "monument",
    "name" : "terminal mitnitsa tetovo"
  },
  "nodes" : null,
  "members" : null
}, {
  "type" : "node",
  "id" : 6136130988,
  "lat" : 41.9885405,
  "lon" : 21.2926787,
  "tags" : {
    "historic" : "monument",
    "name" : "patarina-160"
  },
  "nodes" : null,
  "members" : null
}, {
  "type" : "node",
  "id" : 6337100523,
  "lat" : 41.8289715,
  "lon" : 21.9562049,
  "tags" : {
    "historic" : "monument",
    "name" : "Kanda - Geoglif Sv. Nikole",
    "website" : "https://www.ancient-origins.net/news-history-archaeology/astronomical-alignment-geoglyph-republic-macedonia-020170"
  },
  "nodes" : null,
  "members" : null
}, {
  "type" : "node",
  "id" : 6348392216,
  "lat" : 41.7361643,
  "lon" : 22.2020987,
  "tags" : {
    "historic" : "memorial"
  },
  "nodes" : null,
  "members" : null
}, {
  "type" : "node",
  "id" : 6348392225,
  "lat" : 41.738462,
  "lon" : 22.1983434,
  "tags" : {
    "historic" : "memorial"
  },
  "nodes" : null,
  "members" : null
}, {
  "type" : "node",
  "id" : 6348392226,
  "lat" : 41.7384601,
  "lon" : 22.1984235,
  "tags" : {
    "historic" : "memorial"
  },
  "nodes" : null,
  "members" : null
}, {
  "type" : "node",
  "id" : 6348392227,
  "lat" : 41.7361778,
  "lon" : 22.201961,
  "tags" : {
    "historic" : "memorial"
  },
  "nodes" : null,
  "members" : null
}, {
  "type" : "node",
  "id" : 6348392228,
  "lat" : 41.7362745,
  "lon" : 22.2015065,
  "tags" : {
    "historic" : "memorial"
  },
  "nodes" : null,
  "members" : null
}, {
  "type" : "node",
  "id" : 6348392229,
  "lat" : 41.7363007,
  "lon" : 22.201344,
  "tags" : {
    "historic" : "memorial"
  },
  "nodes" : null,
  "members" : null
}, {
  "type" : "node",
  "id" : 6349377665,
  "lat" : 41.7364635,
  "lon" : 22.1899861,
  "tags" : {
    "historic" : "monument"
  },
  "nodes" : null,
  "members" : null
}, {
  "type" : "node",
  "id" : 6349394489,
  "lat" : 41.7363308,
  "lon" : 22.1912077,
  "tags" : {
    "tourism" : "artwork"
  },
  "nodes" : null,
  "members" : null
}, {
  "type" : "node",
  "id" : 6349721704,
  "lat" : 41.7213441,
  "lon" : 22.6569551,
  "tags" : {
    "historic" : "memorial",
    "inscription" : "Малешевскиот (Малешки) народноослободителен одред бил територијална партизанска единица на НОВ и ПОМ. Формиран е во месноста Паруца, кота 1356 на пл. Плачковица и делувал од 25 август до ноември 1944. Одредот е формиран од 50 борци од Малешевијата. Ги нап",
    "memorial" : "plaque",
    "name" : "Споменик на Малешевскиот (Малешки) народноослободителен одред"
  },
  "nodes" : null,
  "members" : null
}, {
  "type" : "node",
  "id" : 6370375570,
  "lat" : 40.9578024,
  "lon" : 20.7807897,
  "tags" : {
    "caravans" : "yes",
    "fee" : "yes",
    "name" : "Grebnos RV Park and Camping",
    "name:en" : "Grebnos RV Park and Camping",
    "name:mk" : "Автокамп „Гребнос“",
    "tents" : "yes",
    "tourism" : "camp_site",
    "website" : "http://www.grebnos.com"
  },
  "nodes" : null,
  "members" : null
}, {
  "type" : "node",
  "id" : 6418857588,
  "lat" : 41.0043725,
  "lon" : 20.9282003,
  "tags" : {
    "access" : "yes",
    "archaeological_site" : "fortification",
    "ele" : "1181",
    "historic" : "archaeological_site",
    "historic:civilization" : "byzantine",
    "int_name" : "Kale",
    "name" : "Кале",
    "name:en" : "Kale",
    "name:mk" : "Кале",
    "wikidata" : "Q20569402",
    "wikipedia" : "mk:Кале (Шурленци)"
  },
  "nodes" : null,
  "members" : null
}, {
  "type" : "node",
  "id" : 6471416045,
  "lat" : 41.9856377,
  "lon" : 22.5905605,
  "tags" : {
    "access" : "yes",
    "alt_name" : "Луковица",
    "alt_name:mk" : "Lukovica",
    "archaeological_site" : "fortification",
    "ele" : "523",
    "historic" : "archaeological_site",
    "historic:civilization" : "ancient_roman",
    "int_name" : "Kalata",
    "name" : "Калата",
    "name:en" : "Kalata",
    "name:mk" : "Калата",
    "source" : "survey",
    "source:ele" : "https://ossp.katastar.gov.mk/OSSP/",
    "source:type" : "http://www.promacedonia.org/im3/im_delchevo.htm",
    "start_date" : "3rd century",
    "wikidata" : "Q43276459",
    "wikipedia" : "mk:Калата"
  },
  "nodes" : null,
  "members" : null
}, {
  "type" : "node",
  "id" : 6535106716,
  "lat" : 41.6952366,
  "lon" : 21.628172,
  "tags" : {
    "access" : "yes",
    "archaeological_site" : "fortification",
    "ele" : "840",
    "historic" : "archaeological_site",
    "int_name" : "Banjichko Kale",
    "name" : "Бањичко Кале",
    "name:en" : "Banjica Fortress",
    "wikidata" : "Q61121392",
    "wikipedia" : "mk:Бањичко Кале"
  },
  "nodes" : null,
  "members" : null
}, {
  "type" : "node",
  "id" : 6535291386,
  "lat" : 41.4020926,
  "lon" : 22.2463863,
  "tags" : {
    "name" : "Rock camp",
    "tourism" : "camp_site",
    "website" : "https://www.campingmacedonia.com/"
  },
  "nodes" : null,
  "members" : null
}, {
  "type" : "node",
  "id" : 6549925339,
  "lat" : 40.9536539,
  "lon" : 21.0720023,
  "tags" : {
    "capacity" : "10",
    "fee" : "yes",
    "internet_access" : "wlan",
    "internet_access:fee" : "no",
    "name" : "Coca Beach Bar",
    "operator" : "Coca Beach Bar",
    "tourism" : "camp_site"
  },
  "nodes" : null,
  "members" : null
}, {
  "type" : "node",
  "id" : 6551383461,
  "lat" : 41.0911248,
  "lon" : 20.8003779,
  "tags" : {
    "capacity" : "20",
    "fee" : "yes",
    "internet_access" : "wlan",
    "name" : "Camperstop KJ Divono",
    "operator" : "Stefan Stavrev",
    "phone" : "+38978472482",
    "power_supply" : "yes",
    "sanitary_dump_station" : "yes",
    "tourism" : "caravan_site",
    "wheelchair" : "yes"
  },
  "nodes" : null,
  "members" : null
}, {
  "type" : "node",
  "id" : 6563726510,
  "lat" : 41.3747079,
  "lon" : 20.7630424,
  "tags" : {
    "historic" : "monument",
    "inscription" : "WWII",
    "name" : "Mirče Acev Bataljon",
    "website" : "https://en.m.wikipedia.org/wiki/People%27s_Liberation_Army_of_Macedonia"
  },
  "nodes" : null,
  "members" : null
}, {
  "type" : "node",
  "id" : 6602681335,
  "lat" : 42.0003947,
  "lon" : 21.4323317,
  "tags" : {
    "tourism" : "artwork"
  },
  "nodes" : null,
  "members" : null
}, {
  "type" : "node",
  "id" : 6753287085,
  "lat" : 40.9810657,
  "lon" : 20.9179668,
  "tags" : {
    "name:en" : "Self organized camping",
    "name:nl" : "Self organized camping",
    "tourism" : "camp_site"
  },
  "nodes" : null,
  "members" : null
}, {
  "type" : "node",
  "id" : 6781576802,
  "lat" : 41.1146413,
  "lon" : 20.7912802,
  "tags" : {
    "historic" : "city_gate"
  },
  "nodes" : null,
  "members" : null
}, {
  "type" : "node",
  "id" : 6821158694,
  "lat" : 41.9943288,
  "lon" : 21.4307922,
  "tags" : {
    "historic" : "memorial",
    "name" : "2 musicians and one dancing man"
  },
  "nodes" : null,
  "members" : null
}, {
  "type" : "node",
  "id" : 6833101185,
  "lat" : 41.1120953,
  "lon" : 20.795694,
  "tags" : {
    "historic" : "memorial",
    "material" : "stone",
    "memorial" : "stele",
    "name" : "Коста Абраш"
  },
  "nodes" : null,
  "members" : null
}, {
  "type" : "node",
  "id" : 6836372300,
  "lat" : 41.9980253,
  "lon" : 21.4401485,
  "tags" : {
    "tourism" : "artwork"
  },
  "nodes" : null,
  "members" : null
}, {
  "type" : "node",
  "id" : 6836372425,
  "lat" : 41.9921956,
  "lon" : 21.4373551,
  "tags" : {
    "tourism" : "artwork"
  },
  "nodes" : null,
  "members" : null
}, {
  "type" : "node",
  "id" : 6836372494,
  "lat" : 41.9921852,
  "lon" : 21.4373454,
  "tags" : {
    "tourism" : "artwork"
  },
  "nodes" : null,
  "members" : null
}, {
  "type" : "node",
  "id" : 6837039795,
  "lat" : 41.1124032,
  "lon" : 20.8071328,
  "tags" : {
    "historic" : "memorial",
    "name" : "Henry Dunant"
  },
  "nodes" : null,
  "members" : null
}, {
  "type" : "node",
  "id" : 6900758215,
  "lat" : 41.1105053,
  "lon" : 20.8047435,
  "tags" : {
    "name" : "Tomic",
    "tourism" : "chalet"
  },
  "nodes" : null,
  "members" : null
}, {
  "type" : "node",
  "id" : 6901630767,
  "lat" : 41.2754595,
  "lon" : 21.3684104,
  "tags" : {
    "historic" : "monument",
    "name" : "Љубе Грујоски",
    "name:en" : "Ljube Grujoski",
    "wikidata" : "Q20562690"
  },
  "nodes" : null,
  "members" : null
}, {
  "type" : "node",
  "id" : 6928597500,
  "lat" : 42.0992419,
  "lon" : 21.9628186,
  "tags" : {
    "historic" : "archaeological_site"
  },
  "nodes" : null,
  "members" : null
}, {
  "type" : "node",
  "id" : 6987611917,
  "lat" : 41.9962134,
  "lon" : 21.4291373,
  "tags" : {
    "addr:housenumber" : "10",
    "addr:street" : "Максим Горки",
    "name:en" : "Museum of illusions",
    "name:ru" : "Музей иллюзий",
    "tourism" : "museum"
  },
  "nodes" : null,
  "members" : null
}, {
  "type" : "node",
  "id" : 6993445185,
  "lat" : 41.0327147,
  "lon" : 21.335686,
  "tags" : {
    "name" : "Дрво на животот",
    "name:he" : "עץ החיים / מנורה",
    "tourism" : "artwork"
  },
  "nodes" : null,
  "members" : null
}, {
  "type" : "node",
  "id" : 6993445186,
  "lat" : 41.0334398,
  "lon" : 21.3356797,
  "tags" : {
    "artwork_type" : "bust",
    "name" : "Естреја Овадија-Мара",
    "name:he" : "מונומנט אסתר עובדיה",
    "tourism" : "artwork"
  },
  "nodes" : null,
  "members" : null
}, {
  "type" : "node",
  "id" : 7102244287,
  "lat" : 41.9989569,
  "lon" : 21.3865879,
  "tags" : {
    "addr:housenumber" : "94",
    "addr:postcode" : "1000",
    "addr:street" : "Војвода Васил Чакаларов",
    "email" : "galerija.ra@gmail.com",
    "internet_access" : "wlan",
    "name" : "Galerija RA",
    "name:en" : "Gallery RA",
    "name:hr" : "Macedonian",
    "opening_hours" : "Mo-Sa 10:00-20:00",
    "phone" : "+389075435402",
    "tourism" : "museum"
  },
  "nodes" : null,
  "members" : null
}, {
  "type" : "node",
  "id" : 7124138432,
  "lat" : 41.1857198,
  "lon" : 22.7227512,
  "tags" : {
    "access" : "yes",
    "historic" : "monument",
    "name" : "Споменик на Дојрана"
  },
  "nodes" : null,
  "members" : null
}, {
  "type" : "node",
  "id" : 7124138466,
  "lat" : 41.1825947,
  "lon" : 22.7233826,
  "tags" : {
    "access" : "yes",
    "historic" : "monument",
    "name" : "Чешма Света Петка"
  },
  "nodes" : null,
  "members" : null
}, {
  "type" : "node",
  "id" : 7133229598,
  "lat" : 41.9928201,
  "lon" : 21.430246,
  "tags" : {
    "name" : "Skopje Deluxe Apartments",
    "tourism" : "apartments"
  },
  "nodes" : null,
  "members" : null
}, {
  "type" : "node",
  "id" : 7473901313,
  "lat" : 41.1850048,
  "lon" : 20.7762352,
  "tags" : {
    "historic" : "memorial",
    "name" : "AXX110 / RA-42390"
  },
  "nodes" : null,
  "members" : null
}, {
  "type" : "node",
  "id" : 7473959214,
  "lat" : 41.9779001,
  "lon" : 21.6157628,
  "tags" : {
    "historic" : "memorial",
    "memorial" : "aircraft",
    "name" : "PMK301 / PH-KXL"
  },
  "nodes" : null,
  "members" : null
}, {
  "type" : "node",
  "id" : 7475537800,
  "lat" : 41.3724643,
  "lon" : 21.5605466,
  "tags" : {
    "historic" : "memorial",
    "memorial" : "war_memorial",
    "name" : "Дабнички масакр",
    "name:en" : "Masacre of Dabnica",
    "wikipedia" : "mk:Дабнички масакр"
  },
  "nodes" : null,
  "members" : null
}, {
  "type" : "node",
  "id" : 7504362426,
  "lat" : 41.2064953,
  "lon" : 21.6536957,
  "tags" : {
    "access" : "yes",
    "historic" : "monument",
    "inscription" : "1868-1904",
    "name" : "Толе Паша",
    "name:en" : "Tole Pasha",
    "tomb" : "war_grave",
    "wikipedia" : "mk:Толе_Паша"
  },
  "nodes" : null,
  "members" : null
}, {
  "type" : "node",
  "id" : 7508523395,
  "lat" : 42.022416,
  "lon" : 21.5476216,
  "tags" : {
    "historic" : "memorial",
    "memorial" : "war_memorial",
    "name" : "Ацо Ангеловски"
  },
  "nodes" : null,
  "members" : null
}, {
  "type" : "node",
  "id" : 7508523396,
  "lat" : 42.0225556,
  "lon" : 21.5480468,
  "tags" : {
    "historic" : "memorial",
    "memorial" : "war_memorial",
    "name" : "Кирил Петрушевски"
  },
  "nodes" : null,
  "members" : null
}, {
  "type" : "node",
  "id" : 7508523397,
  "lat" : 42.0227044,
  "lon" : 21.5486015,
  "tags" : {
    "historic" : "memorial",
    "memorial" : "war_memorial",
    "name" : "Ерол Готак"
  },
  "nodes" : null,
  "members" : null
}, {
  "type" : "node",
  "id" : 7564103281,
  "lat" : 41.9764851,
  "lon" : 21.1660504,
  "tags" : {
    "historic" : "memorial",
    "memorial" : "war_memorial",
    "name" : "Нане Наумоски"
  },
  "nodes" : null,
  "members" : null
}, {
  "type" : "node",
  "id" : 7564103282,
  "lat" : 41.977847,
  "lon" : 21.1773385,
  "tags" : {
    "historic" : "memorial",
    "memorial" : "war_memorial",
    "name" : "Сашо Китаноски"
  },
  "nodes" : null,
  "members" : null
}, {
  "type" : "node",
  "id" : 7564103283,
  "lat" : 41.97753,
  "lon" : 21.1679024,
  "tags" : {
    "historic" : "memorial",
    "memorial" : "war_memorial",
    "name" : "Бранко Секулоски"
  },
  "nodes" : null,
  "members" : null
}, {
  "type" : "node",
  "id" : 7564125585,
  "lat" : 41.9781971,
  "lon" : 21.1745241,
  "tags" : {
    "historic" : "memorial",
    "memorial" : "war_memorial",
    "name" : "Горан Миноски"
  },
  "nodes" : null,
  "members" : null
}, {
  "type" : "node",
  "id" : 7564125586,
  "lat" : 41.977893,
  "lon" : 21.1713626,
  "tags" : {
    "historic" : "memorial",
    "memorial" : "war_memorial",
    "name" : "Марко Деспотоски"
  },
  "nodes" : null,
  "members" : null
}, {
  "type" : "node",
  "id" : 7564125587,
  "lat" : 41.9767167,
  "lon" : 21.1675604,
  "tags" : {
    "historic" : "memorial",
    "memorial" : "war_memorial",
    "name" : "Ердован Шабаноски"
  },
  "nodes" : null,
  "members" : null
}, {
  "type" : "node",
  "id" : 7564125588,
  "lat" : 41.9772958,
  "lon" : 21.1694976,
  "tags" : {
    "historic" : "memorial",
    "memorial" : "war_memorial",
    "name" : "Љубе Грујоски"
  },
  "nodes" : null,
  "members" : null
}, {
  "type" : "node",
  "id" : 7564125589,
  "lat" : 41.9770406,
  "lon" : 21.1717935,
  "tags" : {
    "historic" : "memorial",
    "memorial" : "war_memorial",
    "name" : "Дарко Велјаноски"
  },
  "nodes" : null,
  "members" : null
}, {
  "type" : "node",
  "id" : 7564125590,
  "lat" : 41.9767893,
  "lon" : 21.1747438,
  "tags" : {
    "historic" : "memorial",
    "memorial" : "war_memorial",
    "name" : "Веби Рушитоски"
  },
  "nodes" : null,
  "members" : null
}, {
  "type" : "node",
  "id" : 7564125591,
  "lat" : 41.977042,
  "lon" : 21.1770879,
  "tags" : {
    "historic" : "memorial",
    "memorial" : "war_memorial",
    "name" : "Пеце Секулоски"
  },
  "nodes" : null,
  "members" : null
}, {
  "type" : "node",
  "id" : 7623493347,
  "lat" : 41.3575814,
  "lon" : 21.6256855,
  "tags" : {
    "historic" : "memorial",
    "material" : "marble",
    "memorial" : "plaque",
    "name" : "Карпалак"
  },
  "nodes" : null,
  "members" : null
}, {
  "type" : "node",
  "id" : 7626158238,
  "lat" : 41.4014262,
  "lon" : 22.0284286,
  "tags" : {
    "historic" : "memorial",
    "inscription" : "Смртта стана немоќна пред нашата младост исправена, пред очите наши загледани, уште тоа утро во иднината.",
    "material" : "reinforced_concrete",
    "memorial" : "war_memorial",
    "name" : "Масакр во Ваташа",
    "name:en" : "Vatasha Massacre",
    "wikidata" : "Q12908460",
    "wikipedia" : "mk:Масакр во Ваташа",
    "wikipedia:sr" : "Масакр у Ваташи"
  },
  "nodes" : null,
  "members" : null
}, {
  "type" : "node",
  "id" : 7626874879,
  "lat" : 41.3428704,
  "lon" : 21.5583071,
  "tags" : {
    "access" : "yes",
    "historic" : "tomb",
    "name" : "Пере Тошев",
    "name:en" : "Pere Toshev",
    "subject:wikipedia" : "mk:Пере Тошев",
    "tomb" : "tombstone"
  },
  "nodes" : null,
  "members" : null
}, {
  "type" : "node",
  "id" : 7668777840,
  "lat" : 41.2504567,
  "lon" : 21.2277167,
  "tags" : {
    "historic" : "monument"
  },
  "nodes" : null,
  "members" : null
}, {
  "type" : "node",
  "id" : 7769292645,
  "lat" : 41.9972086,
  "lon" : 21.4333292,
  "tags" : {
    "historic" : "memorial",
    "image" : "https://upload.wikimedia.org/wikipedia/commons/9/96/Karposh_memory_table_Skopje.JPG",
    "memorial" : "plaque",
    "subject:wikidata" : "Q2386486",
    "subject:wikipedia" : "mk:Карпош"
  },
  "nodes" : null,
  "members" : null
}, {
  "type" : "node",
  "id" : 7771077503,
  "lat" : 41.4436592,
  "lon" : 20.8721449,
  "tags" : {
    "historic" : "memorial",
    "material" : "granite",
    "memorial" : "war_memorial",
    "name" : "Duko Tasev"
  },
  "nodes" : null,
  "members" : null
}, {
  "type" : "node",
  "id" : 7796229745,
  "lat" : 41.4831122,
  "lon" : 20.9229426,
  "tags" : {
    "historic" : "monument",
    "name" : "Гоце Делчев"
  },
  "nodes" : null,
  "members" : null
}, {
  "type" : "node",
  "id" : 7796229746,
  "lat" : 41.483575,
  "lon" : 20.9222623,
  "tags" : {
    "historic" : "monument",
    "name" : "Христо Узунов",
    "name:en" : "Hristo Uzunov"
  },
  "nodes" : null,
  "members" : null
}, {
  "type" : "node",
  "id" : 7817723542,
  "lat" : 41.2693524,
  "lon" : 21.1933224,
  "tags" : {
    "historic" : "memorial",
    "memorial" : "war_memorial"
  },
  "nodes" : null,
  "members" : null
}, {
  "type" : "node",
  "id" : 7817956981,
  "lat" : 41.1121139,
  "lon" : 20.7976493,
  "tags" : {
    "historic" : "city_gate"
  },
  "nodes" : null,
  "members" : null
}, {
  "type" : "node",
  "id" : 7826733791,
  "lat" : 41.4528994,
  "lon" : 20.9658462,
  "tags" : {
    "date" : "1904-08-04",
    "historic" : "battlefield",
    "name" : "Битката на Ѓурѓејца",
    "name:en" : "Battle of Gjurgjejca"
  },
  "nodes" : null,
  "members" : null
}, {
  "type" : "node",
  "id" : 7833094677,
  "lat" : 41.8646892,
  "lon" : 21.942062,
  "tags" : {
    "historic" : "monument",
    "name" : "Споменик Св. Никола",
    "name:en" : "Monument of St. Nicholas"
  },
  "nodes" : null,
  "members" : null
}, {
  "type" : "node",
  "id" : 7833095397,
  "lat" : 41.8644645,
  "lon" : 21.9410121,
  "tags" : {
    "historic" : "monument",
    "name" : "Споменик „Лазар Колишевски“"
  },
  "nodes" : null,
  "members" : null
}, {
  "type" : "node",
  "id" : 7836134125,
  "lat" : 41.8627557,
  "lon" : 21.9386585,
  "tags" : {
    "historic" : "memorial",
    "name" : "Св. Илија"
  },
  "nodes" : null,
  "members" : null
}, {
  "type" : "node",
  "id" : 7947878810,
  "lat" : 41.9156602,
  "lon" : 22.412778,
  "tags" : {
    "access" : "yes",
    "historic" : "monument",
    "name" : "Споменик на Никола Карев",
    "name:en" : "Monument to Nikola Karev"
  },
  "nodes" : null,
  "members" : null
}, {
  "type" : "node",
  "id" : 8004416436,
  "lat" : 41.3360133,
  "lon" : 21.5554027,
  "tags" : {
    "artwork_type" : "bust",
    "name" : "Кире Гаврилоски-Јане",
    "name:en" : "Kire Gavriloski-Jane",
    "tourism" : "artwork",
    "wikidata" : "Q7997885",
    "wikipedia" : "mk:Кире Гаврилоски"
  },
  "nodes" : null,
  "members" : null
}, {
  "type" : "node",
  "id" : 8004416437,
  "lat" : 41.3356523,
  "lon" : 21.554537,
  "tags" : {
    "artwork_type" : "bust",
    "name" : "Круме Волнароски-Коља",
    "name:en" : "Krume Volnaroski-Kolja",
    "tourism" : "artwork",
    "wikidata" : "Q2833589",
    "wikipedia" : "mk:Круме Волнароски"
  },
  "nodes" : null,
  "members" : null
}, {
  "type" : "node",
  "id" : 8004416438,
  "lat" : 41.3358036,
  "lon" : 21.5548999,
  "tags" : {
    "artwork_type" : "bust",
    "name" : "Народен херој Мирче Ацев-Стојче",
    "name:en" : "People's hero Mirche Acev-Stojche",
    "tourism" : "artwork",
    "wikidata" : "Q2984520",
    "wikipedia" : "mk:Мирче Ацев"
  },
  "nodes" : null,
  "members" : null
}, {
  "type" : "node",
  "id" : 8004416439,
  "lat" : 41.3357217,
  "lon" : 21.5547035,
  "tags" : {
    "artwork_type" : "bust",
    "name" : "Рампо Левков-Левков",
    "name:en" : "Rampo Levkov-Levkata",
    "tourism" : "artwork",
    "wikidata" : "Q3406952",
    "wikipedia" : "mk:Рампо Левков - Левката"
  },
  "nodes" : null,
  "members" : null
}, {
  "type" : "node",
  "id" : 8004416440,
  "lat" : 41.3358954,
  "lon" : 21.55512,
  "tags" : {
    "artwork_type" : "bust",
    "name" : "Борка Талески-Модерното",
    "name:en" : "Borka Taleski-Modernoto",
    "tourism" : "artwork",
    "wikidata" : "Q3406966",
    "wikipedia" : "mk:Борка Талески"
  },
  "nodes" : null,
  "members" : null
}, {
  "type" : "node",
  "id" : 8004416441,
  "lat" : 41.3356849,
  "lon" : 21.5546151,
  "tags" : {
    "artwork_type" : "bust",
    "name" : "Лазо Колевски-Лавски",
    "name:en" : "Lazo Kolevski-Lavski",
    "tourism" : "artwork",
    "wikidata" : "Q3603590",
    "wikipedia" : "mk:Лазо Колевски"
  },
  "nodes" : null,
  "members" : null
}, {
  "type" : "node",
  "id" : 8004416442,
  "lat" : 41.335763,
  "lon" : 21.5548025,
  "tags" : {
    "artwork_type" : "bust",
    "name" : "Борка Велески-Горанов",
    "name:en" : "Borka Veleski-Goranov",
    "tourism" : "artwork",
    "wikidata" : "Q3406924",
    "wikipedia" : "mk:Борка Велески"
  },
  "nodes" : null,
  "members" : null
}, {
  "type" : "node",
  "id" : 8004416443,
  "lat" : 41.3358485,
  "lon" : 21.5550074,
  "tags" : {
    "artwork_type" : "bust",
    "name" : "Народен херој Кузман Јосифоски-Питу",
    "name:en" : "People's hero Kuzman Josifoski-Pitu",
    "name:mk" : "Народен херој Кузман Јосифоски-Питу",
    "tourism" : "artwork",
    "wikidata" : "Q3397220",
    "wikipedia" : "mk:Кузман Јосифоски - Питу"
  },
  "nodes" : null,
  "members" : null
}, {
  "type" : "node",
  "id" : 8004416444,
  "lat" : 41.3359385,
  "lon" : 21.5552234,
  "tags" : {
    "artwork_type" : "bust",
    "name" : "Јордан Чопела-Орде",
    "name:en" : "Jordan Chopela-Orde",
    "tourism" : "artwork",
    "wikidata" : "Q3406637",
    "wikipedia" : "mk:Орде Чопела"
  },
  "nodes" : null,
  "members" : null
}, {
  "type" : "node",
  "id" : 8004416445,
  "lat" : 41.3359728,
  "lon" : 21.5553055,
  "tags" : {
    "artwork_type" : "bust",
    "name" : "Илија Игески-Цветан",
    "name:en" : "Ilija Igeski-Cvetan",
    "tourism" : "artwork",
    "wikidata" : "Q61119921",
    "wikipedia" : "mk:Илија Јованоски"
  },
  "nodes" : null,
  "members" : null
},